nombre,ID,pais,divisiones,latitud,longitud,altitud,año,comunidades,PSE,pob_servida,viv_servidas,tipo_gravedad,tipo_bombeo,tipo_pozo_manual,tipo_agua_lluvia,agua_epoca_seca,agua_epoca_lluvia
Sistema de VISTA HERMOSA,135492,Perú,"AMAZONAS,CHACHAPOYAS,ASUNCION",-5.96261,-77.7505,2510,2009,VISTA HERMOSA,Prestador de VISTA HERMOSA,100,25,NO,NO,NO,NO,NO,NO
Sistema de POLLAN,135494,Perú,"AMAZONAS,CHACHAPOYAS,ASUNCION",-5.9988,-77.74,2728,2007,POLLAN,Municipalidad de ASUNCION,30,9,NO,NO,NO,NO,NO,NO
Sistema de VITUYA,135495,Perú,"AMAZONAS,CHACHAPOYAS,CHILIQUIN",-6.10203,-77.7914,1936,2000,VITUYA,Municipalidad de CHILIQUIN,160,42,NO,NO,NO,NO,NO,NO
Sistema de CHUQUIBAMBA,135496,Perú,"AMAZONAS,CHACHAPOYAS,CHUQUIBAMBA",-6.93474,-77.8547,2793,2015,CHUQUIBAMBA,Municipalidad de CHUQUIBAMBA,520,120,NO,NO,NO,NO,NO,SI
Sistema de CHUMBOL,135497,Perú,"AMAZONAS,CHACHAPOYAS,CHUQUIBAMBA",-6.92442,-77.9401,2507,1995,CHUMBOL,comunidad de chumbol,186.33333333333334,65,NO,NO,NO,NO,NO,SI
Sistema de LA JALCA,135498,Perú,"AMAZONAS,CHACHAPOYAS,LA JALCA",-6.48465,-77.8152,2800,2011,LA JALCA,Municipalidad de LA JALCA,430,86,NO,NO,NO,NO,NO,NO
Sistema de CUEYQUETA,135503,Perú,"AMAZONAS,CHACHAPOYAS,LA JALCA",-6.52517,-77.8143,2538,1998,CUEYQUETA,JUNTA ADMINISTRADORA DE SERVICIOS DE SANEAMIENTO,250,50,NO,NO,NO,NO,NO,NO
Sistema de QUELUCAS,135504,Perú,"AMAZONAS,CHACHAPOYAS,LA JALCA",-6.53172,-77.8264,2154,1997,QUELUCAS,JUNTA ADMINISTRADORA DE SERVICIOS DE SANEAMIENTO,235,47,NO,NO,NO,NO,NO,SI
Sistema de UBILON,135507,Perú,"AMAZONAS,CHACHAPOYAS,LA JALCA",-6.51032,-77.8494,1938,2000,UBILON,JUNTA DIRECTIVA DE AGUA,211.20000000000002,48,NO,NO,NO,NO,NO,NO
Sistema de YUMAL,135508,Perú,"AMAZONAS,CHACHAPOYAS,LA JALCA",-6.47878,-77.8132,2677,2000,YUMAL,Prestador de YUMAL,4.5,3,NO,NO,NO,NO,NO,NO
Sistema de BUIQUIL,135509,Perú,"AMAZONAS,CHACHAPOYAS,LA JALCA",-6.47363,-77.8202,2640,2012,BUIQUIL,COMITE DE AGUA,62.63157894736842,34,NO,NO,NO,NO,NO,SI
Sistema de PENGOTE,135510,Perú,"AMAZONAS,CHACHAPOYAS,LA JALCA",-6.5469,-77.8125,2550,2011,PENGOTE,Prestador de PENGOTE,287.5,115,NO,NO,NO,NO,NO,NO
Sistema de QUILLUNYA,135511,Perú,"AMAZONAS,CHACHAPOYAS,LA JALCA",-6.54018,-77.7784,2430,2011,QUILLUNYA,Prestador de QUILLUNYA,286.3636363636363,105,NO,NO,NO,NO,NO,NO
Sistema de YERBA BUENA,135512,Perú,"AMAZONAS,CHACHAPOYAS,LA JALCA",-6.55084,-77.826,2000,2011,YERBA BUENA,Prestador de YERBA BUENA,847,500,NO,NO,NO,NO,NO,NO
Sistema de LA UNION,135513,Perú,"AMAZONAS,CHACHAPOYAS,LA JALCA",-6.54587,-77.8271,1600,2010,LA UNION,JUNTA DE USUARIOS,150,80,NO,NO,NO,NO,NO,NO
Sistema de CHILINGOTE,135514,Perú,"AMAZONAS,CHACHAPOYAS,LEIMEBAMBA",-6.65887,-77.7973,2180,2000,CHILINGOTE,junta administrativa del agua potable-chilingote,75,21,NO,NO,NO,NO,NO,NO
Sistema de DOS DE MAYO,135516,Perú,"AMAZONAS,CHACHAPOYAS,LEIMEBAMBA",-6.71669,-77.8003,2389,2012,DOS DE MAYO,JASS DOS DE MAYO,1500,300,NO,NO,NO,NO,NO,NO
Sistema de ATUEN,135517,Perú,"AMAZONAS,CHACHAPOYAS,LEIMEBAMBA",-6.90543,-77.7816,3445,2011,ATUEN,ATUEN,100,20,NO,NO,NO,NO,NO,NO
Sistema de AUMUCH,135520,Perú,"AMAZONAS,CHACHAPOYAS,LEIMEBAMBA",-6.70947,-77.8129,2350,2014,AUMUCH,JUNTA ADMINISTRADORA DE AGUA AUMUCH - PARAJILLO,30,30,NO,NO,NO,NO,NO,NO
Sistema de CHILCHOS,135521,Perú,"AMAZONAS,CHACHAPOYAS,LEIMEBAMBA",-6.73098,-77.7647,1900,1998,CHILCHOS,no cuenta,92.8679245283019,23,NO,NO,NO,NO,NO,NO
Sistema de LEVANTO,135522,Perú,"AMAZONAS,CHACHAPOYAS,LEVANTO",-6.30818,-77.899,2653,2000,LEVANTO,Municipalidad de LEVANTO,680,170,NO,NO,NO,NO,NO,NO
Sistema de SHILMAL,135525,Perú,"AMAZONAS,CHACHAPOYAS,QUINJALCA",-6.10598,-77.6496,2957,2002,SHILMAL,COMITE DE AGUA,110.69767441860465,34,NO,NO,NO,NO,SI,SI
Sistema de NUEVO OLMAL,135526,Perú,"AMAZONAS,CHACHAPOYAS,SONCHE",-6.18556,-77.7806,2483,2005,NUEVO OLMAL,Municipalidad de SONCHE,144,40,NO,NO,NO,NO,NO,NO
Sistema de SAN JUAN DE SONCHE,135527,Perú,"AMAZONAS,CHACHAPOYAS,SONCHE",-6.21917,-77.7751,2052,1995,SAN JUAN DE SONCHE,Municipalidad de SONCHE,72,30,NO,NO,NO,NO,NO,NO
Sistema de EL MUYO (C.P.L.),135528,Perú,"AMAZONAS,BAGUA,ARAMANGO",-5.42261,-78.4529,363,2014,EL MUYO (C.P.L.),muyo-alto muyo,535,107,NO,NO,NO,NO,NO,NO
Sistema de TUTUMBEROS,135531,Perú,"AMAZONAS,BAGUA,ARAMANGO",-5.32867,-78.445,341,1992,TUTUMBEROS,tutumberos,581.8181818181818,80,NO,NO,NO,NO,NO,NO
Sistema de NUEVO PROGRESO,135532,Perú,"AMAZONAS,BAGUA,ARAMANGO",-5.39927,-78.3772,1208,2000,NUEVO PROGRESO,nuevo progreso,75,15,NO,NO,NO,NO,NO,NO
Sistema de CHINGANZA,135534,Perú,"AMAZONAS,BAGUA,ARAMANGO",-5.36291,-78.4518,371,1993,CHINGANZA,COMITE DE AGUA CHINGANZA,175,35,NO,NO,NO,NO,NO,NO
Sistema de TUTUMBEROS,135537,Perú,"AMAZONAS,BAGUA,ARAMANGO",-5.33766,-78.4587,339,1997,TUTUMBEROS,TUTUMBEROS CIVIL,200,40,NO,NO,NO,NO,SI,SI
Sistema de MIRANA,135540,Perú,"AMAZONAS,BAGUA,ARAMANGO",-5.31682,-78.4376,305,1998,MIRANA,mirana,405,21,NO,NO,NO,NO,NO,NO
Sistema de BELLAVISTA,135541,Perú,"AMAZONAS,BAGUA,ARAMANGO",-5.40821,-78.4402,585,1997,BELLAVISTA,vellavista,250,50,NO,NO,NO,NO,NO,NO
Sistema de FLOR DE LA VI,135542,Perú,"AMAZONAS,BAGUA,ARAMANGO",-5.454,-78.3238,1224,1999,FLOR DE LA VI,FLOR DE LA VI,85.26315789473684,18,NO,NO,NO,NO,NO,NO
Sistema de MIRAFLORES,135543,Perú,"AMAZONAS,BAGUA,ARAMANGO",-5.48925,-78.3821,1163,2000,MIRAFLORES,miraflores,240,48,NO,NO,NO,NO,NO,NO
Sistema de POMABAMBA,135544,Perú,"AMAZONAS,BAGUA,ARAMANGO",-5.46343,-78.3797,838,1995,POMABAMBA,pomabamba,125,25,NO,NO,NO,NO,NO,NO
Sistema de EL CEDRON,135546,Perú,"AMAZONAS,BAGUA,ARAMANGO",-5.43103,-78.4048,978,1998,EL CEDRON,el cedron,150,30,NO,NO,NO,NO,NO,NO
Sistema de COPALLIN DE ARAMANGO,135550,Perú,"AMAZONAS,BAGUA,ARAMANGO",-5.45966,-78.4598,989,2000,COPALLIN DE ARAMANGO,copallin,865,173,NO,NO,NO,NO,NO,NO
Sistema de SANJUAN DE DIOS,135551,Perú,"AMAZONAS,BAGUA,ARAMANGO",-5.3374,-78.555,1291,1996,SANJUAN DE DIOS,san juan de dios,200,40,NO,NO,NO,NO,NO,NO
Sistema de ZAPOTAL,135552,Perú,"AMAZONAS,BAGUA,ARAMANGO",-5.36738,-78.5234,1073,2000,ZAPOTAL,zapotal,150,30,NO,NO,NO,NO,NO,NO
Sistema de NUMPARQUE,135555,Perú,"AMAZONAS,BAGUA,ARAMANGO",-5.44309,-78.3865,983,2000,NUMPARQUE,numparque,450,90,NO,NO,NO,NO,NO,NO
Sistema de GUAYAQUIL,135556,Perú,"AMAZONAS,BAGUA,ARAMANGO",-5.44364,-78.3594,1032,1998,GUAYAQUIL,guayaquil,150,30,NO,NO,NO,NO,NO,NO
Sistema de ARAMANGO,135557,Perú,"AMAZONAS,BAGUA,ARAMANGO",-5.41653,-78.438,549,2000,ARAMANGO,COMITE DE AGUA DE ARAMANGO,1816,454,NO,NO,NO,NO,NO,NO
Sistema de CHUNGUINA BAJA,135558,Perú,"AMAZONAS,BAGUA,COPALLIN",-5.69189,-78.4427,589,2012,CHUNGUINA BAJA,jass chunguina baja - chunguina alta,50,19,NO,NO,NO,NO,NO,NO
Sistema de PAN DE AZUCAR,135560,Perú,"AMAZONAS,BAGUA,COPALLIN",-5.64287,-78.3876,1013,2014,PAN DE AZUCAR,jass-pan de azucar,276,46,NO,NO,NO,NO,SI,SI
Sistema de SAN JOSE ALTO,135561,Perú,"AMAZONAS,BAGUA,COPALLIN",-5.60735,-78.3404,1407,2014,SAN JOSE ALTO,jass-san jose alto,48.333333333333336,29,NO,NO,NO,NO,SI,SI
Sistema de EL PORVENIR,135562,Perú,"AMAZONAS,BAGUA,COPALLIN",-5.6162,-78.3433,1193,2014,EL PORVENIR,JASS - EL PORVENIR,175,49,NO,NO,NO,NO,NO,NO
Sistema de LIRIO DE LOS VALLES,135565,Perú,"AMAZONAS,BAGUA,COPALLIN",-5.59605,-78.3502,1212,1996,LIRIO DE LOS VALLES,JASS - SANTA CRUZ DE MOROCHAL - LIRIO DE LOS VALLE,166.15384615384613,36,NO,NO,NO,NO,SI,SI
Sistema de SANTA ANA,135567,Perú,"AMAZONAS,BAGUA,COPALLIN",-5.68414,-78.4105,770,2012,SANTA ANA,jass santa ana-la cruz,80,25,NO,NO,NO,NO,NO,NO
Sistema de ALENYA,135568,Perú,"AMAZONAS,BAGUA,COPALLIN",-5.68584,-78.4799,442,2001,ALENYA,JASS ALENYA-PALACIOS,510,135,NO,NO,NO,NO,SI,SI
Sistema de EL YUYO,135569,Perú,"AMAZONAS,BAGUA,COPALLIN",-5.62648,-78.3851,972,2002,EL YUYO,COMITE DE AGUA EL YUYO,66,22,NO,NO,NO,NO,SI,NO
Sistema de LA CRUZ,135570,Perú,"AMAZONAS,BAGUA,COPALLIN",-5.68999,-78.4102,793,2012,LA CRUZ,jass santa ana -la cruz,80,25,NO,NO,NO,NO,NO,NO
Sistema de LLUHUANA,135571,Perú,"AMAZONAS,BAGUA,COPALLIN",-5.67,-78.4135,970,2015,LLUHUANA,jass lluhuana,537.9310344827586,130,NO,NO,NO,NO,NO,NO
Sistema de LA PALMA,135572,Perú,"AMAZONAS,BAGUA,COPALLIN",-5.61966,-78.3687,929,2015,LA PALMA,jass la palma,0,0,NO,NO,NO,NO,NO,NO
Sistema de CHIRIACO,135573,Perú,"AMAZONAS,BAGUA,IMAZA",-5.16399,-78.2888,317,2001,CHIRIACO,jass-los aguajales,432,72,NO,NO,NO,NO,NO,SI
Sistema de MARACANA,135574,Perú,"AMAZONAS,BAGUA,IMAZA",-5.07616,-78.3292,276,2000,MARACANA,jass - maracana,720,120,NO,NO,NO,NO,NO,SI
Sistema de PAKUI,135575,Perú,"AMAZONAS,BAGUA,IMAZA",-4.89463,-78.4952,322,2013,PAKUI,JASS - PAKUI Y INAYO,240,48,NO,NO,NO,NO,SI,SI
Sistema de MESONES MURO,135576,Perú,"AMAZONAS,BAGUA,IMAZA",-5.07249,-78.332,275,1997,MESONES MURO,JASS - MESONES MURO,850,170,NO,NO,NO,NO,SI,SI
Sistema de CHIPE,135577,Perú,"AMAZONAS,BAGUA,IMAZA",-4.79413,-78.2882,526,2000,CHIPE,Municipalidad de IMAZA,888,140,NO,NO,NO,NO,NO,NO
Sistema de TEMASHNUM,135578,Perú,"AMAZONAS,BAGUA,IMAZA",-5.03811,-78.348,425,2005,TEMASHNUM,Prestador de TEMASHNUM,680,166,NO,NO,NO,NO,NO,SI
Sistema de DURAND,135579,Perú,"AMAZONAS,BAGUA,IMAZA",-5.2382,-78.3645,381,1994,DURAND,DURAND JASS,75,25,NO,NO,NO,NO,NO,NO
Sistema de NAYUMPIN,135580,Perú,"AMAZONAS,BAGUA,IMAZA",-5.30593,-78.1548,298,2009,NAYUMPIN,nayumipim jass,113.51351351351352,30,NO,NO,NO,NO,NO,NO
Sistema de BUKUIG,135581,Perú,"AMAZONAS,BAGUA,IMAZA",-5.0175,-78.3356,270,2000,BUKUIG,bukuig,100,20,NO,NO,NO,NO,NO,NO
Sistema de NUEVO SALEN,135582,Perú,"AMAZONAS,BAGUA,IMAZA",-4.9577,-78.3331,270,2004,NUEVO SALEN,nuevo salem,156.1904761904762,32,NO,NO,NO,NO,NO,NO
Sistema de ALMENDRO,135584,Perú,"AMAZONAS,BAGUA,IMAZA",-5.27135,-78.3762,352,2014,ALMENDRO,ALMENDRO JASS,150,28,NO,NO,NO,NO,NO,NO
Sistema de KUSU GRANDE,135585,Perú,"AMAZONAS,BAGUA,IMAZA",-5.04509,-78.2642,295,1996,KUSU GRANDE,KUSU GRANDE JASS,300,60,NO,NO,NO,NO,NO,NO
Sistema de NUEVA ESPERANZA,135586,Perú,"AMAZONAS,BAGUA,IMAZA",-4.9256,-78.1739,506,1999,NUEVA ESPERANZA,NUEVA ESPERANZA JASS,80,20,NO,NO,NO,NO,NO,NO
Sistema de NUEVO CHOTA,135587,Perú,"AMAZONAS,BAGUA,IMAZA",-5.07027,-78.302,307,2000,NUEVO CHOTA,nuevo chota jass,90,25,NO,NO,NO,NO,NO,NO
Sistema de NUEVO HUANCABAMBA,135589,Perú,"AMAZONAS,BAGUA,IMAZA",-4.88473,-78.2054,284,1985,NUEVO HUANCABAMBA,NUEVO HUANCABAMBA JASS,0.9148936170212766,43,NO,NO,NO,NO,NO,NO
Sistema de NUMPARQUE,135590,Perú,"AMAZONAS,BAGUA,IMAZA",-5.1314,-78.2845,283,1999,NUMPARQUE,numparque jass,0,0,NO,NO,NO,NO,NO,NO
Sistema de TUNTUNGOS,135591,Perú,"AMAZONAS,BAGUA,IMAZA",-5.14889,-78.2405,312,1999,TUNTUNGOS,jaas tuntungos,65,13,NO,NO,NO,NO,NO,NO
Sistema de VILLA RICA,135592,Perú,"AMAZONAS,BAGUA,IMAZA",-4.961,-78.2385,439,1997,VILLA RICA,villa RICA JAAS,60,24,NO,NO,NO,NO,NO,NO
Sistema de WAWIKO WAWICO,135593,Perú,"AMAZONAS,BAGUA,IMAZA",-4.93612,-78.202,321,1988,WAWIKO WAWICO,wawiwo jaas,225,45,NO,NO,NO,NO,NO,NO
Sistema de ACHU,135594,Perú,"AMAZONAS,BAGUA,IMAZA",-4.92726,-78.2633,567,2009,ACHU,achu jass,345,18,NO,NO,NO,NO,NO,NO
Sistema de KAMPANENTSA,135595,Perú,"AMAZONAS,BAGUA,IMAZA",-4.94508,-78.3438,346,2011,KAMPANENTSA,KAMPANENTSA JASS,191.57894736842104,52,NO,NO,NO,NO,NO,NO
Sistema de VILLA HERMOSA,135596,Perú,"AMAZONAS,BAGUA,IMAZA",-5.18909,-78.3111,357,1997,VILLA HERMOSA,VILLA RICA JASS,80,24,NO,NO,NO,NO,NO,NO
Sistema de SAMAREN,135597,Perú,"AMAZONAS,BAGUA,IMAZA",-5.16233,-78.388,306,2005,SAMAREN,Prestador de SAMAREN,170,20,NO,NO,NO,NO,SI,SI
Sistema de YANGUNGA,135598,Perú,"AMAZONAS,BAGUA,IMAZA",-5.1941,-78.2778,298,2004,YANGUNGA,yangunga  jass,109.375,35,NO,NO,NO,NO,NO,SI
Sistema de PAGKI,135599,Perú,"AMAZONAS,BAGUA,IMAZA",-5.24864,-78.3372,342,2012,PAGKI,Prestador de PAGKI,101.33333333333333,38,NO,NO,NO,NO,NO,NO
Sistema de NUEVO PORVENIR,135601,Perú,"AMAZONAS,BAGUA,LA PECA",-5.57657,-78.4574,992,2015,NUEVO PORVENIR,JASS Nuevo Porvenir,50,24,NO,NO,NO,NO,NO,NO
Sistema de SANTA ROSA,135604,Perú,"AMAZONAS,BAGUA,LA PECA",-5.6083,-78.4333,919,1996,SANTA ROSA,jass santa rosa miravilles mullucashe,72,18,NO,NO,NO,NO,NO,NO
Sistema de MIRAVALLES,135605,Perú,"AMAZONAS,BAGUA,LA PECA",-5.59997,-78.4542,967,1996,MIRAVALLES,jass miravalles Santa rosa mullucashe,50,10,NO,NO,NO,NO,NO,NO
Sistema de ARRAYAN,135606,Perú,"AMAZONAS,BAGUA,LA PECA",-5.59671,-78.442,939,2011,ARRAYAN,jass arrayan,552,138,NO,NO,NO,NO,NO,NO
Sistema de SAN FRANCISCO,135607,Perú,"AMAZONAS,BAGUA,LA PECA",-5.6221,-78.4494,734,1997,SAN FRANCISCO,JASS San Francisco,520,124,NO,NO,NO,NO,NO,NO
Sistema de MULLUCASHE,135610,Perú,"AMAZONAS,BAGUA,LA PECA",-5.60618,-78.4543,828,1996,MULLUCASHE,Jass santa rosa Miravalles mullucashe,130,36,NO,NO,NO,NO,NO,NO
Sistema de NUEVA FLORIDA,135611,Perú,"AMAZONAS,BAGUA,LA PECA",-5.60123,-78.4401,898,2012,NUEVA FLORIDA,JASS NUEVA FLORIDA,200,50,NO,NO,NO,NO,SI,SI
Sistema de JUMBILLA,135612,Perú,"AMAZONAS,BONGARA,JUMBILLA",-5.90435,-77.798,2086,2000,JUMBILLA,Prestador de JUMBILLA,1385,536,NO,NO,NO,NO,SI,SI
Sistema de BEIRUT,135613,Perú,"AMAZONAS,BONGARA,COROSHA",-5.82099,-77.8267,1882,1990,BEIRUT,Municipalidad de COROSHA,716.9811320754717,190,NO,NO,NO,NO,NO,NO
Sistema de LA UNION,135617,Perú,"AMAZONAS,BONGARA,JAZAN",-5.96011,-77.9986,1726,1999,LA UNION,junta administradora de agua potable  la union,105,21,NO,NO,NO,NO,SI,NO
Sistema de SE,135619,Perú,"AMAZONAS,BONGARA,JAZAN",-5.95726,-77.9838,1357,1997,SE,Prestador de SE,160,32,NO,NO,NO,NO,SI,NO
Sistema de DONCE,135620,Perú,"AMAZONAS,BONGARA,JAZAN",-5.95995,-77.9788,1342,1997,DONCE,Prestador de DONCE,165,33,NO,NO,NO,NO,NO,NO
Sistema de TEATA,135624,Perú,"AMAZONAS,BONGARA,RECTA",-5.93787,-77.7565,239,2010,TEATA,Municipalidad de RECTA,50,16,NO,NO,NO,NO,SI,SI
Sistema de MATIAZA RIMACHI,135625,Perú,"AMAZONAS,BONGARA,VALERA",-6.05751,-77.9245,1425,1995,MATIAZA RIMACHI,SIN NOMBRE,50,10,NO,NO,NO,NO,NO,NO
Sistema de TINGORBAMBA,135626,Perú,"AMAZONAS,BONGARA,VALERA",-6.08469,-77.8977,1479,2000,TINGORBAMBA,sin nombre,28,7,NO,NO,NO,NO,NO,NO
Sistema de CORTE CERRADO,135631,Perú,"AMAZONAS,BONGARA,YAMBRASBAMBA",-5.73009,-77.9086,1753,2012,CORTE CERRADO,Prestador de CORTE CERRADO,45,15,NO,NO,NO,NO,NO,NO
Sistema de TICABAMBA,135632,Perú,"AMAZONAS,BONGARA,YAMBRASBAMBA",-5.72481,-77.9316,1763,2012,TICABAMBA,comit,100,30,NO,NO,NO,NO,NO,NO
Sistema de BUENOS AIRES,135633,Perú,"AMAZONAS,BONGARA,YAMBRASBAMBA",-5.67178,-77.9303,1875,1995,BUENOS AIRES,Municipalidad de YAMBRASBAMBA,595,170,NO,NO,NO,NO,NO,NO
Sistema de VILCANIZA,135634,Perú,"AMAZONAS,BONGARA,YAMBRASBAMBA",-5.76683,-77.8833,1705,2015,VILCANIZA,Municipalidad de YAMBRASBAMBA,600,180,NO,NO,NO,NO,NO,NO
Sistema de PERLA DEL IMAZA,135635,Perú,"AMAZONAS,BONGARA,YAMBRASBAMBA",-5.60553,-78.0059,1815,2004,PERLA DEL IMAZA,la comunidad,175,35,NO,NO,NO,NO,NO,NO
Sistema de YAMBRASBAMBA,135636,Perú,"AMAZONAS,BONGARA,YAMBRASBAMBA",-5.70463,-77.9526,1820,2015,YAMBRASBAMBA,Municipalidad de YAMBRASBAMBA,1000,300,NO,NO,NO,NO,NO,NO
Sistema de SANTA ROSA,135637,Perú,"AMAZONAS,BONGARA,YAMBRASBAMBA",-5.6205,-77.939,2152,1998,SANTA ROSA,COMIT,250,25,NO,NO,NO,NO,NO,NO
Sistema de SHUCAYACU,135638,Perú,"AMAZONAS,BONGARA,YAMBRASBAMBA",-5.73402,-77.9257,1765,2001,SHUCAYACU,la comunidad,250,50,NO,NO,NO,NO,NO,NO
Sistema de VILLA HERMOSA,135640,Perú,"AMAZONAS,BONGARA,YAMBRASBAMBA",-5.40188,-77.7802,1474,2014,VILLA HERMOSA,LA COMUNIDAD,180,44,NO,NO,NO,NO,NO,NO
Sistema de EL PROGRESO,135642,Perú,"AMAZONAS,BONGARA,YAMBRASBAMBA",-5.52456,-77.8567,2088,1990,EL PROGRESO,comite de agua el progreso,1250,300,NO,NO,NO,NO,NO,NO
Sistema de AJACHIN,135644,Perú,"AMAZONAS,CONDORCANQUI,NIEVA",-4.67016,-78.0827,234,2000,AJACHIN,JASS AJACHIM,84,14,NO,NO,NO,NO,NO,NO
Sistema de HUARACAYO,135645,Perú,"AMAZONAS,CONDORCANQUI,NIEVA",-4.68642,-78.0808,228,2009,HUARACAYO,JASS HUARACAYO,525,75,NO,NO,NO,NO,NO,NO
Sistema de NAJAIN,135646,Perú,"AMAZONAS,CONDORCANQUI,NIEVA",-4.87147,-78.0513,235,2008,NAJAIN,jass najain,489.25531914893617,73,NO,NO,NO,NO,NO,NO
Sistema de SANTA ROSA,135647,Perú,"AMAZONAS,CONDORCANQUI,NIEVA",-4.48264,-77.784,192,1997,SANTA ROSA,jass santa rosa,307.04,76,NO,NO,NO,NO,NO,NO
Sistema de CENTRO IPACUMA,135648,Perú,"AMAZONAS,CONDORCANQUI,NIEVA",-4.96752,-77.9455,239,2008,CENTRO IPACUMA,JASS IPACUMA,510,90,NO,NO,NO,NO,SI,NO
Sistema de TUNDUSA PUERTO (TUNDUSA ANEXO),135649,Perú,"AMAZONAS,CONDORCANQUI,NIEVA",-4.70445,-77.8434,253,2000,TUNDUSA PUERTO (TUNDUSA ANEXO),JASS TUNDUSA,533.3333333333334,80,NO,NO,NO,NO,NO,NO
Sistema de TSAMAJAIN,135650,Perú,"AMAZONAS,CONDORCANQUI,NIEVA",-4.44117,-77.635,191,2002,TSAMAJAIN,JASS TSAMAJAIN,105.94594594594595,20,NO,NO,NO,NO,NO,NO
Sistema de BAJO PUPUNTAS,135651,Perú,"AMAZONAS,CONDORCANQUI,NIEVA",-4.48173,-77.6786,215,2010,BAJO PUPUNTAS,JASS PUPUNTAS,416,52,NO,NO,NO,NO,NO,NO
Sistema de BAJO KASHAP,135652,Perú,"AMAZONAS,CONDORCANQUI,NIEVA",-4.46864,-77.8166,201,2010,BAJO KASHAP,JASS KASHAP,91,19,NO,NO,NO,NO,NO,NO
Sistema de ATSAKUS,135653,Perú,"AMAZONAS,CONDORCANQUI,NIEVA",-4.47673,-77.7872,188,2000,ATSAKUS,JASS ATSAKUS,240,48,NO,NO,NO,NO,NO,NO
Sistema de PUJUPAT,135654,Perú,"AMAZONAS,CONDORCANQUI,NIEVA",-4.55715,-77.8682,166,2004,PUJUPAT,JASS PUJUPAT,84.375,20,NO,NO,NO,NO,NO,NO
Sistema de BASHUTAK,135655,Perú,"AMAZONAS,CONDORCANQUI,NIEVA",-4.48645,-77.6678,187,2009,BASHUTAK,JASS BASHUTAK,397.7142857142858,48,NO,NO,NO,NO,NO,NO
Sistema de JAPAIME ESCUELA,135656,Perú,"AMAZONAS,CONDORCANQUI,NIEVA",-4.71286,-77.8946,190,2000,JAPAIME ESCUELA,JASS JAPAIME ESCUELA,152.55737704918033,36,NO,NO,NO,NO,NO,NO
Sistema de TAYUNTSA,135657,Perú,"AMAZONAS,CONDORCANQUI,NIEVA",-4.83635,-77.9496,235,2000,TAYUNTSA,JASS TAYUNTSA,1120,280,NO,NO,NO,NO,NO,NO
Sistema de PAANTAN,135658,Perú,"AMAZONAS,CONDORCANQUI,NIEVA",-4.89963,-78.0797,284,2002,PAANTAN,JASS PANTAM,264.82758620689657,40,NO,NO,NO,NO,NO,NO
Sistema de PARCELACION MONTERRICO,135659,Perú,"AMAZONAS,CONDORCANQUI,NIEVA",-4.88254,-77.9295,235,2009,PARCELACION MONTERRICO,JASS MONTERRICO,218.4,42,NO,NO,NO,NO,NO,NO
Sistema de NUEVO SEASME (NUEVO SEASMI),135661,Perú,"AMAZONAS,CONDORCANQUI,NIEVA",-4.68795,-77.8094,276,1999,NUEVO SEASME (NUEVO SEASMI),jass nuevo seasmi,350,70,NO,NO,NO,NO,NO,NO
Sistema de SUWANTS,135663,Perú,"AMAZONAS,CONDORCANQUI,NIEVA",-4.88515,-78.0819,276,2015,SUWANTS,jass suwants,404,75,NO,NO,NO,NO,NO,NO
Sistema de SANTA FE,135664,Perú,"AMAZONAS,CONDORCANQUI,NIEVA",-4.87236,-77.9331,236,2009,SANTA FE,jass santa fe,125,25,NO,NO,NO,NO,NO,NO
Sistema de URAKUSA,135665,Perú,"AMAZONAS,CONDORCANQUI,NIEVA",-4.71626,-78.057,220,1998,URAKUSA,jass urakuza,960,120,NO,NO,NO,NO,NO,NO
Sistema de KIGKIS,135667,Perú,"AMAZONAS,CONDORCANQUI,NIEVA",-4.89648,-77.9251,233,2012,KIGKIS,jass kigkis,654,109,NO,NO,NO,NO,NO,NO
Sistema de QUEBRADA JAPAIME,135668,Perú,"AMAZONAS,CONDORCANQUI,NIEVA",-4.70117,-77.8804,194,2002,QUEBRADA JAPAIME,jass japaime quebrada,96,18,NO,NO,NO,NO,NO,NO
Sistema de ALTO KUIT,135669,Perú,"AMAZONAS,CONDORCANQUI,NIEVA",-4.50269,-77.9481,206,2003,ALTO KUIT,jass alto kuit,160,32,NO,NO,NO,NO,NO,NO
Sistema de SEASME,135670,Perú,"AMAZONAS,CONDORCANQUI,NIEVA",-4.65015,-77.8806,203,2006,SEASME,jass seasmi,320.625,57,NO,NO,NO,NO,NO,NO
Sistema de BAJO CANAMPA,135671,Perú,"AMAZONAS,CONDORCANQUI,NIEVA",-4.567,-77.8986,194,1994,BAJO CANAMPA,jass canampa,148.57142857142858,40,NO,NO,NO,NO,NO,NO
Sistema de SANTA MARIA DE NIEVA,135672,Perú,"AMAZONAS,CONDORCANQUI,NIEVA",-4.59235,-77.8645,213,2010,SANTA MARIA DE NIEVA,Municipalidad de NIEVA,1995,399,NO,NO,NO,NO,NO,NO
Sistema de JUAN VELASCO ALVARADO,135673,Perú,"AMAZONAS,CONDORCANQUI,NIEVA",-4.59773,-77.864,215,2010,JUAN VELASCO ALVARADO,Municipalidad de NIEVA,1024,256,NO,NO,NO,NO,NO,NO
Sistema de WAWAIM,135674,Perú,"AMAZONAS,CONDORCANQUI,EL CENEPA",-4.63616,-78.1462,238,2010,WAWAIM,JASS WAWAIM,480,96,NO,NO,NO,NO,NO,NO
Sistema de MAMAYAQUE,135675,Perú,"AMAZONAS,CONDORCANQUI,EL CENEPA",-4.60631,-78.2008,230,1992,MAMAYAQUE,JASS MAMAYAQUE,800,160,NO,NO,NO,NO,NO,NO
Sistema de TUTIN,135676,Perú,"AMAZONAS,CONDORCANQUI,EL CENEPA",-4.57314,-78.1905,241,1998,TUTIN,JASS TUTIN,300,60,NO,NO,NO,NO,NO,NO
Sistema de KUSU KUBAIM,135677,Perú,"AMAZONAS,CONDORCANQUI,EL CENEPA",-4.432,-78.2494,242,1998,KUSU KUBAIM,jass,760,152,NO,NO,NO,NO,NO,SI
Sistema de ANEXO PAGATA,135678,Perú,"AMAZONAS,CONDORCANQUI,EL CENEPA",-4.41339,-78.27,257,2002,ANEXO PAGATA,jass,570,115,NO,NO,NO,NO,NO,SI
Sistema de PAMPA ENTSA,135679,Perú,"AMAZONAS,CONDORCANQUI,EL CENEPA",-4.52935,-78.462,388,2003,PAMPA ENTSA,jaas,346.6666666666667,78,NO,NO,NO,NO,NO,SI
Sistema de KUSU CHICO,135680,Perú,"AMAZONAS,CONDORCANQUI,EL CENEPA",-4.40268,-78.4105,350,2002,KUSU CHICO,jaas,310,62,NO,NO,NO,NO,NO,SI
Sistema de SOLEDAD,135681,Perú,"AMAZONAS,CONDORCANQUI,RIO SANTIAGO",-3.49707,-77.7765,260,2007,SOLEDAD,jass soledad,384.75,72,NO,NO,NO,NO,NO,NO
Sistema de CANDUNGOS,135682,Perú,"AMAZONAS,CONDORCANQUI,RIO SANTIAGO",-3.46548,-77.8523,205,2002,CANDUNGOS,JASS CANDUNGOS,740,74,NO,NO,NO,NO,NO,NO
Sistema de YUTUPIS,135683,Perú,"AMAZONAS,CONDORCANQUI,RIO SANTIAGO",-4.05829,-77.7573,183,2007,YUTUPIS,jass yutupis,1549.5147540983605,498,NO,NO,NO,NO,NO,NO
Sistema de NUEVA ESPERANZA,135684,Perú,"AMAZONAS,CONDORCANQUI,RIO SANTIAGO",-3.78331,-77.7343,184,2001,NUEVA ESPERANZA,jass nueva esperanza,331.5,68,NO,NO,NO,NO,NO,NO
Sistema de LA LIBERTAD,135685,Perú,"AMAZONAS,LUYA,CAMPORREDONDO",-6.14018,-78.3492,1779,2005,LA LIBERTAD,jass libertad,226.92307692307693,40,NO,NO,NO,NO,NO,NO
Sistema de CAMPORREDONDO,135690,Perú,"AMAZONAS,LUYA,CAMPORREDONDO",-6.21385,-78.3187,1730,1999,CAMPORREDONDO,Prestador de CAMPORREDONDO,1360,386,NO,NO,NO,NO,SI,SI
Sistema de COCOCHO,135691,Perú,"AMAZONAS,LUYA,CAMPORREDONDO",-6.19188,-78.3299,1801,1985,COCOCHO,Prestador de COCOCHO,2000,555,NO,NO,NO,NO,NO,NO
Sistema de GUADALUPE,135692,Perú,"AMAZONAS,LUYA,CAMPORREDONDO",-6.1703,-78.3568,1664,1999,GUADALUPE,COMIT,1017.9999999999999,270,NO,NO,NO,NO,NO,NO
Sistema de COLCAMAR,135697,Perú,"AMAZONAS,LUYA,COLCAMAR",-6.31777,-78.002,2397,2000,COLCAMAR,Municipalidad de COLCAMAR,1528.72,485,NO,NO,NO,NO,NO,NO
Sistema de COLMATA,135698,Perú,"AMAZONAS,LUYA,LUYA",-6.1805,-77.9841,2525,1992,COLMATA,SIN NOMBRE,350,69,NO,NO,NO,NO,NO,NO
Sistema de CHOCTA,135699,Perú,"AMAZONAS,LUYA,LUYA",-6.1723,-78.0273,2860,2009,CHOCTA,SIN NOMBRE,780.1630434782609,174,NO,NO,NO,NO,NO,NO
Sistema de SHIPATA,135700,Perú,"AMAZONAS,LUYA,LUYA",-6.16793,-78.0159,2768,2000,SHIPATA,SIN NOMBRE,350,70,NO,NO,NO,NO,NO,NO
Sistema de HUAYCHOPAMPA,135701,Perú,"AMAZONAS,LUYA,LUYA",-6.16102,-77.9607,2729,1996,HUAYCHOPAMPA,huaychopampa,200,40,NO,NO,NO,NO,NO,NO
Sistema de COROBAMBA,135702,Perú,"AMAZONAS,LUYA,LUYA",-6.15769,-77.9552,2725,1998,COROBAMBA,corobamba,335,67,NO,NO,NO,NO,NO,NO
Sistema de PAMPA HERMOSA,135704,Perú,"AMAZONAS,LUYA,LUYA",-6.15894,-77.9602,2866,2000,PAMPA HERMOSA,Comite de Control de Agua,25,12,NO,NO,NO,NO,NO,NO
Sistema de DELO,135709,Perú,"AMAZONAS,LUYA,OCALLI",-6.23241,-78.1773,1461,2000,DELO,Prestador de DELO,222.22222222222223,40,NO,NO,NO,NO,NO,NO
Sistema de COCAPAMPA,135710,Perú,"AMAZONAS,LUYA,OCALLI",-6.23044,-78.1505,1605,2012,COCAPAMPA,Prestador de COCAPAMPA,140,28,NO,NO,NO,NO,SI,SI
Sistema de CALDERA,135711,Perú,"AMAZONAS,LUYA,OCUMAL",-6.34007,-78.2428,1656,2000,CALDERA,JASS CALDERA,310,62,NO,NO,NO,NO,NO,NO
Sistema de SAN JUAN,135712,Perú,"AMAZONAS,LUYA,OCUMAL",-6.37179,-78.1408,1509,2000,SAN JUAN,SAN JUAN,370,74,NO,NO,NO,NO,SI,SI
Sistema de LA UNION,135713,Perú,"AMAZONAS,LUYA,OCUMAL",-6.38917,-78.1473,1565,1992,LA UNION,LA UNI,380,74,NO,NO,NO,NO,NO,NO
Sistema de CHUQUIMAL,135714,Perú,"AMAZONAS,LUYA,OCUMAL",-6.35262,-78.0918,1823,1994,CHUQUIMAL,CHUQU,750,150,NO,NO,NO,NO,NO,NO
Sistema de CONGON,135716,Perú,"AMAZONAS,LUYA,OCUMAL",-6.30391,-78.1146,1805,2009,CONGON,COMITE DE AGUA,217.24137931034483,36,NO,NO,NO,NO,NO,NO
Sistema de AMIA,135717,Perú,"AMAZONAS,LUYA,OCUMAL",-6.30637,-78.1025,1986,2009,AMIA,COMITE DE AGUA,30,8,NO,NO,NO,NO,NO,NO
Sistema de MOTUPE,135720,Perú,"AMAZONAS,LUYA,OCUMAL",-6.31226,-78.2361,1802,2014,MOTUPE,JASS MOTUPE,177.77777777777777,24,NO,NO,NO,NO,NO,NO
Sistema de YAULICACHI,135721,Perú,"AMAZONAS,LUYA,OCUMAL",-6.36333,-78.073,1820,1996,YAULICACHI,JASS YAULICACHI,159.0909090909091,35,NO,NO,NO,NO,NO,NO
Sistema de LIMAPAMPA,135723,Perú,"AMAZONAS,LUYA,OCUMAL",-6.39893,-78.1563,1710,2007,LIMAPAMPA,LIMAPAMPA,483.8709677419355,60,NO,NO,NO,NO,NO,SI
Sistema de PIRCAPAMPA,135724,Perú,"AMAZONAS,LUYA,PISUQUIA",-6.41629,-78.0655,2098,1996,PIRCAPAMPA,Prestador de PIRCAPAMPA,450,90,NO,NO,NO,NO,NO,NO
Sistema de SAN MIGUEL DE PORO PORO,135725,Perú,"AMAZONAS,LUYA,PISUQUIA",-6.45458,-78.1339,2096,1999,SAN MIGUEL DE PORO PORO,COMITE DE AGUA POTABLE,540,90,NO,NO,NO,NO,SI,SI
Sistema de MEMBRILLO,135726,Perú,"AMAZONAS,LUYA,PISUQUIA",-6.48225,-78.0469,2145,2014,MEMBRILLO,JASS MEMBRILLO,324.8,84,NO,NO,NO,NO,NO,NO
Sistema de PISUQUIA,135727,Perú,"AMAZONAS,LUYA,PISUQUIA",-6.49547,-78.052,2189,2003,PISUQUIA,Prestador de PISUQUIA,360,60,NO,NO,NO,NO,NO,NO
Sistema de PLAYA JUMETH,135732,Perú,"AMAZONAS,LUYA,PROVIDENCIA",-6.26865,-78.2729,1027,2014,PLAYA JUMETH,PLAYA JUMETH,62.5,25,NO,NO,NO,NO,NO,NO
Sistema de OLTO,135733,Perú,"AMAZONAS,LUYA,SAN CRISTOBAL",-6.10176,-77.9589,2626,1998,OLTO,Municipalidad de SAN CRISTOBAL,229.99999999999997,45,NO,NO,NO,NO,NO,NO
Sistema de SAN JUAN,135734,Perú,"AMAZONAS,LUYA,SAN CRISTOBAL",-6.09695,-77.962,2546,1998,SAN JUAN,Municipalidad de SAN CRISTOBAL,120,45,NO,NO,NO,NO,NO,NO
Sistema de SANTA ROSA,135735,Perú,"AMAZONAS,LUYA,SAN CRISTOBAL",-6.07269,-77.9422,2549,1998,SANTA ROSA,Municipalidad de SAN CRISTOBAL,25,10,NO,NO,NO,NO,NO,NO
Sistema de SAN CRISTOBAL DEL YESO,135737,Perú,"AMAZONAS,LUYA,SAN FRANCISCO DEL YESO",-6.69723,-77.8082,2450,2000,SAN CRISTOBAL DEL YESO,Municipalidad de SAN FRANCISCO DEL YESO,134,20,NO,NO,NO,NO,NO,NO
Sistema de SAMANGA,135738,Perú,"AMAZONAS,LUYA,SAN FRANCISCO DEL YESO",-6.64451,-77.8055,2456,2000,SAMANGA,Municipalidad de SAN FRANCISCO DEL YESO,44,8,NO,NO,NO,NO,NO,NO
Sistema de SAN JUAN DE LOPECANCHA,135739,Perú,"AMAZONAS,LUYA,SAN JUAN DE LOPECANCHA",-6.48601,-77.8807,2850,2000,SAN JUAN DE LOPECANCHA,Municipalidad de SAN JUAN DE LOPECANCHA,559.6171875,189,NO,NO,NO,NO,NO,NO
Sistema de TRIUNFO,135740,Perú,"AMAZONAS,LUYA,SAN JUAN DE LOPECANCHA",-6.50994,-77.8558,2896,1995,TRIUNFO,Municipalidad de SAN JUAN DE LOPECANCHA,3.3,1,NO,NO,NO,NO,NO,NO
Sistema de MENDOZA,135742,Perú,"AMAZONAS,RODRIGUEZ DE MENDOZA,SAN NICOLAS",-6.39591,-77.4822,1602,2007,MENDOZA,Municipalidad de SAN NICOLAS,1986.7549668874174,1500,NO,NO,NO,NO,NO,NO
Sistema de HUARMIACO (HUARIMIACO),135745,Perú,"AMAZONAS,RODRIGUEZ DE MENDOZA,SAN NICOLAS",-6.39491,-77.4698,1556,2009,HUARMIACO (HUARIMIACO),COMITE DE AGUA HUARMIACO,128,32,NO,NO,NO,NO,NO,NO
Sistema de RUMIACO,135746,Perú,"AMAZONAS,RODRIGUEZ DE MENDOZA,SAN NICOLAS",-6.38975,-77.4217,1674,2001,RUMIACO,COMITE DE AGUA RUMIACO,72,24,NO,NO,NO,NO,NO,NO
Sistema de CRUZ PATA,135747,Perú,"AMAZONAS,RODRIGUEZ DE MENDOZA,SAN NICOLAS",-6.4088,-77.4579,1579,2009,CRUZ PATA,COMITE DE AGUA CRUZ PATA,2000,42,NO,NO,NO,NO,NO,NO
Sistema de PARISTA,135748,Perú,"AMAZONAS,RODRIGUEZ DE MENDOZA,SAN NICOLAS",-6.40135,-77.461,1600,2012,PARISTA,COMITE DE AGUA PARISTA,136,34,NO,NO,NO,NO,NO,NO
Sistema de NUEVA ESPERANZA,135749,Perú,"AMAZONAS,RODRIGUEZ DE MENDOZA,SAN NICOLAS",-6.4125,-77.4518,1555,2009,NUEVA ESPERANZA,comite de agua de nueva esperanza,315,105,NO,NO,NO,NO,NO,NO
Sistema de MITO,135750,Perú,"AMAZONAS,RODRIGUEZ DE MENDOZA,SAN NICOLAS",-6.4155,-77.4383,1507,2009,MITO,COMITE DE AGUA MITO,120,40,NO,NO,NO,NO,NO,NO
Sistema de NARANJOS ALTOS,135764,Perú,"AMAZONAS,UTCUBAMBA,CAJARURO",-5.73523,-78.3601,651,1980,NARANJOS ALTOS,jass naranjos alto,832,260,NO,NO,NO,NO,NO,NO
Sistema de NARANJOS BAJO,135765,Perú,"AMAZONAS,UTCUBAMBA,CAJARURO",-5.74374,-78.3737,644,2001,NARANJOS BAJO,jass naranjos bajo,615,123,NO,NO,NO,NO,NO,NO
Sistema de AGUAS TURBIAS,135771,Perú,"AMAZONAS,UTCUBAMBA,CAJARURO",-5.74959,-78.1928,918,2004,AGUAS TURBIAS,COMITE DE  AGUA POTABLE  AGUAS TURBIAS,250,50,NO,NO,NO,NO,NO,NO
Sistema de NUEVO PIURA,135778,Perú,"AMAZONAS,UTCUBAMBA,CAJARURO",-5.73804,-78.2697,649,2000,NUEVO PIURA,comite de agua potable nuevo piura,360,72,NO,NO,NO,NO,NO,NO
Sistema de MANDINGAS BAJO,135779,Perú,"AMAZONAS,UTCUBAMBA,CAJARURO",-5.79624,-78.2706,603,1995,MANDINGAS BAJO,comite de agua potable mandingas alto,300,60,NO,NO,NO,NO,SI,SI
Sistema de LLUNCHICATE,135781,Perú,"AMAZONAS,UTCUBAMBA,CAJARURO",-5.74775,-78.285,976,2000,LLUNCHICATE,comite agua potable caserio llunchicate,650,130,NO,NO,NO,NO,NO,NO
Sistema de SAN MIGUEL,135785,Perú,"AMAZONAS,UTCUBAMBA,CAJARURO",-5.74538,-78.2953,665,1999,SAN MIGUEL,comite san miguel,150,30,NO,NO,NO,NO,NO,NO
Sistema de MISQUIYACU ALTO,135786,Perú,"AMAZONAS,UTCUBAMBA,CAJARURO",-5.7104,-78.2961,872,1995,MISQUIYACU ALTO,jass misquiyacu alto,750,150,NO,NO,NO,NO,NO,NO
Sistema de HUALANGO,135789,Perú,"AMAZONAS,UTCUBAMBA,CUMBA",-5.96615,-78.5794,1256,1999,HUALANGO,jass hualango,1020,204,NO,NO,NO,NO,NO,NO
Sistema de EL REJO,135793,Perú,"AMAZONAS,UTCUBAMBA,CUMBA",-5.86717,-78.6228,1707,1998,EL REJO,jass el rejo,307.8,72,NO,NO,NO,NO,NO,NO
Sistema de CARBAJALES,135794,Perú,"AMAZONAS,UTCUBAMBA,CUMBA",-5.88584,-78.6134,1598,1998,CARBAJALES,comite de agua carbajales,83.1891891891892,27,NO,NO,NO,NO,NO,SI
Sistema de PIATANA,135805,Perú,"AMAZONAS,UTCUBAMBA,CUMBA",-5.9589,-78.6497,596,1990,PIATANA,comite dde agua piatana,107.5,25,NO,NO,NO,NO,NO,SI
Sistema de LA MOLANA,135809,Perú,"AMAZONAS,UTCUBAMBA,CUMBA",-5.93738,-78.6472,501,1998,LA MOLANA,jass trapichillo la molana,60.99999999999999,28,NO,NO,NO,NO,SI,SI
Sistema de LA CONCORDIA,135811,Perú,"AMAZONAS,UTCUBAMBA,CUMBA",-5.99105,-78.5497,1688,2013,LA CONCORDIA,Prestador de LA CONCORDIA,62.00000000000001,15,NO,NO,NO,NO,NO,NO
Sistema de ROBLE PAMPA,135813,Perú,"AMAZONAS,UTCUBAMBA,LONYA GRANDE",-6.05806,-78.4056,1431,1997,ROBLE PAMPA,JASS ROBLEPAMPA,900,200,NO,NO,NO,NO,NO,NO
Sistema de CHAUPE,135815,Perú,"AMAZONAS,UTCUBAMBA,LONYA GRANDE",-6.03986,-78.4101,1426,2000,CHAUPE,Municipalidad de LONYA GRANDE,312,54,NO,NO,NO,NO,NO,NO
Sistema de ZAPATALGO,135816,Perú,"AMAZONAS,UTCUBAMBA,LONYA GRANDE",-6.06501,-78.5004,1019,1996,ZAPATALGO,Prestador de ZAPATALGO,280,80,NO,NO,NO,NO,NO,NO
Sistema de LONYA GRANDE,135822,Perú,"AMAZONAS,UTCUBAMBA,LONYA GRANDE",-6.09696,-78.4219,1252,1996,LONYA GRANDE,Municipalidad de LONYA GRANDE,2100,420,NO,NO,NO,NO,NO,NO
Sistema de SANTA ROSA DE JAIPE,135827,Perú,"AMAZONAS,UTCUBAMBA,LONYA GRANDE",-6.09227,-78.3931,1334,2005,SANTA ROSA DE JAIPE,Prestador de SANTA ROSA DE JAIPE,750,120,NO,NO,NO,NO,NO,NO
Sistema de FATIMA,135829,Perú,"AMAZONAS,UTCUBAMBA,LONYA GRANDE",-6.07131,-78.421,1245,2012,FATIMA,COMIT,250,50,NO,NO,NO,NO,SI,SI
Sistema de GRACIAS A DIOS,135833,Perú,"AMAZONAS,UTCUBAMBA,LONYA GRANDE",-6.00327,-78.4688,1621,1999,GRACIAS A DIOS,Prestador de GRACIAS A DIOS,250,35,NO,NO,NO,NO,NO,NO
Sistema de LA UNION,135834,Perú,"AMAZONAS,UTCUBAMBA,LONYA GRANDE",-6.02617,-78.4848,1423,2000,LA UNION,Prestador de LA UNION,900,200,NO,NO,NO,NO,NO,NO
Sistema de NUEVO TRIUNFO (POZO NEGRO),135835,Perú,"AMAZONAS,UTCUBAMBA,LONYA GRANDE",-6.08378,-78.4641,830,2005,NUEVO TRIUNFO (POZO NEGRO),Prestador de NUEVO TRIUNFO (POZO NEGRO),25,10,NO,NO,NO,NO,NO,NO
Sistema de RAYPA,135844,Perú,"ANCASH,HUARAZ,HUANCHAY",-9.7454,-77.8813,1383,1994,RAYPA,JAAP RAYPA,496,124,NO,NO,NO,NO,NO,NO
Sistema de OLLEROS,135870,Perú,"ANCASH,HUARAZ,OLLEROS",-9.66685,-77.4656,3431,1980,OLLEROS,JUNTA ADMINSITRADORA DE SERVICIOS Y SANEAMIENTO VI,1100,220,NO,NO,NO,NO,NO,NO
Sistema de IRHUA,135920,Perú,"ANCASH,HUARAZ,TARICA",-9.41483,-77.5406,3373,1997,IRHUA,jass irhua,80,16,NO,NO,NO,NO,NO,NO
Sistema de HUANCAPU,135921,Perú,"ANCASH,HUARAZ,TARICA",-9.42839,-77.5462,3055,2013,HUANCAPU,jass huancapu,200,40,NO,NO,NO,NO,NO,NO
Sistema de SHINUA,135923,Perú,"ANCASH,HUARAZ,TARICA",-9.39766,-77.5396,3352,1985,SHINUA,jass shinua,110,22,NO,NO,NO,NO,NO,NO
Sistema de QUILLASH,135926,Perú,"ANCASH,HUARAZ,TARICA",-9.43717,-77.5467,3016,1992,QUILLASH,jass quillash,235,47,NO,NO,NO,NO,NO,NO
Sistema de BUENOS AIRES DE KARIRAC,135927,Perú,"ANCASH,HUARAZ,TARICA",-9.43014,-77.5419,3112,2013,BUENOS AIRES DE KARIRAC,jass buenos aires,545,109,NO,NO,NO,NO,NO,NO
Sistema de MALLQUI,135930,Perú,"ANCASH,HUARAZ,TARICA",-9.39081,-77.5688,2878,2011,MALLQUI,jass tarica,55,11,NO,NO,NO,NO,NO,NO
Sistema de SHIMPI,135933,Perú,"ANCASH,HUARAZ,TARICA",-9.40112,-77.5716,2835,2002,SHIMPI,JASS CRISTO REY,345,68,NO,NO,NO,NO,NO,NO
Sistema de ANQUILTA,135939,Perú,"ANCASH,AIJA,AIJA",-9.77949,-77.5896,3776,2000,ANQUILTA,comite de agua potable anquilta,160,40,NO,NO,NO,NO,NO,NO
Sistema de CAMPO SANTO,135940,Perú,"ANCASH,AIJA,AIJA",-9.77215,-77.6201,3367,2000,CAMPO SANTO,Prestador de CAMPO SANTO,21,7,NO,NO,NO,NO,NO,NO
Sistema de ARHUEYPAMPA,135995,Perú,"ANCASH,CARHUAZ,CARHUAZ",-9.27544,-77.6417,2732,1999,ARHUEYPAMPA,Municipalidad de CARHUAZ,160,32,NO,NO,NO,NO,NO,NO
Sistema de CAJAMARQUILLA,135996,Perú,"ANCASH,CARHUAZ,CARHUAZ",-9.27838,-77.6376,2757,1992,CAJAMARQUILLA,Municipalidad de CARHUAZ,750,150,NO,NO,NO,NO,NO,NO
Sistema de URANHUAY,135998,Perú,"ANCASH,CARHUAZ,CARHUAZ",-9.27414,-77.6317,2790,2008,URANHUAY,Municipalidad de CARHUAZ,75,25,NO,NO,NO,NO,NO,NO
Sistema de MOLINOPAMPA,136020,Perú,"ANCASH,CARHUAZ,CARHUAZ",-9.28619,-77.6505,2630,1999,MOLINOPAMPA,Municipalidad de CARHUAZ,150,30,NO,NO,NO,NO,NO,NO
Sistema de MARCARA,136028,Perú,"ANCASH,CARHUAZ,MARCARA",-9.32262,-77.6039,2792,2000,MARCARA,Municipalidad de MARCARA,2000,595,NO,NO,NO,NO,NO,NO
Sistema de SAN LUIS,136044,Perú,"ANCASH,CARLOS FERMIN FITZCARRALD,SAN LUIS",-9.09444,-77.3291,3152,1970,SAN LUIS,Municipalidad de SAN LUIS,1998,500,NO,NO,NO,NO,NO,NO
Sistema de SAN MARTIN,136062,Perú,"ANCASH,CARLOS FERMIN FITZCARRALD,YAUYA",-9.02458,-77.2612,3632,1993,SAN MARTIN,JASS SAN MART,112,28,NO,NO,NO,NO,NO,SI
Sistema de BUENA VISTA ALTA,136068,Perú,"ANCASH,CASMA,BUENA VISTA ALTA",-9.43229,-78.2066,220,1970,BUENA VISTA ALTA,Municipalidad de BUENA VISTA ALTA,1966.6666666666667,590,NO,NO,NO,NO,NO,NO
Sistema de BUENA VISTA BAJA,136072,Perú,"ANCASH,CASMA,BUENA VISTA ALTA",-9.44405,-78.215,197,2004,BUENA VISTA BAJA,Municipalidad de BUENA VISTA ALTA,305.88235294117646,130,NO,NO,NO,NO,NO,NO
Sistema de POYOR ALTO,136073,Perú,"ANCASH,CASMA,BUENA VISTA ALTA",-9.3793,-78.1702,345,2004,POYOR ALTO,jaas poyor,84,28,NO,NO,NO,NO,NO,NO
Sistema de POYOR BAJO,136074,Perú,"ANCASH,CASMA,BUENA VISTA ALTA",-9.3831,-78.1729,343,2004,POYOR BAJO,jass poyor,84,28,NO,NO,NO,NO,NO,NO
Sistema de HUANCAMU,136075,Perú,"ANCASH,CASMA,BUENA VISTA ALTA",-9.45272,-78.2253,162,2004,HUANCAMU,municipalidad distrital de buenavista alta,237.5,95,NO,NO,NO,NO,NO,NO
Sistema de HEROES DEL CENEPA,136076,Perú,"ANCASH,CASMA,BUENA VISTA ALTA",-9.44055,-78.2109,338,2004,HEROES DEL CENEPA,Municipalidad de BUENA VISTA ALTA,456,190,NO,NO,NO,NO,NO,NO
Sistema de EMPEDRADA,136077,Perú,"ANCASH,CASMA,BUENA VISTA ALTA",-9.41082,-78.1934,153,2004,EMPEDRADA,Municipalidad de BUENA VISTA ALTA,225,60,NO,NO,NO,NO,NO,NO
Sistema de SECHIN ALTO,136079,Perú,"ANCASH,CASMA,BUENA VISTA ALTA",-9.45998,-78.239,133,2000,SECHIN ALTO,sechin  alto,195,39,NO,NO,NO,NO,NO,NO
Sistema de OLIVAR ALTO,136080,Perú,"ANCASH,CASMA,BUENA VISTA ALTA",-9.38969,-78.1768,343,2005,OLIVAR ALTO,OLIVAR,83.33333333333334,50,NO,NO,NO,NO,NO,NO
Sistema de CHAVIN DE HUANTAR,136116,Perú,"ANCASH,HUARI,CHAVIN DE HUANTAR",-9.5886,-77.1779,3147,2012,CHAVIN DE HUANTAR,Municipalidad de CHAVIN DE HUANTAR,1827.6923076923076,480,NO,NO,NO,NO,NO,NO
Sistema de MULLIPAMPA,136159,Perú,"ANCASH,HUARI,SAN MARCOS",-9.55094,-77.1583,3220,2013,MULLIPAMPA,asociacion san jose,34,17,NO,NO,NO,NO,NO,NO
Sistema de ICHIC CHINCHO,136161,Perú,"ANCASH,HUARI,SAN MARCOS",-9.4883,-77.1377,3405,2001,ICHIC CHINCHO,Prestador de ICHIC CHINCHO,30,7,NO,NO,NO,NO,SI,SI
Sistema de ANGO,136179,Perú,"ANCASH,HUARI,SAN MARCOS",-9.5328,-77.1235,3234,1990,ANGO,COMIT,20,6,NO,NO,NO,NO,NO,NO
Sistema de PUJUN PAMPA,136186,Perú,"ANCASH,HUARI,SAN MARCOS",-9.55173,-77.1224,3540,2000,PUJUN PAMPA,pujun,135,90,NO,NO,NO,NO,NO,NO
Sistema de QUITA SOMBERO,136206,Perú,"ANCASH,HUARMEY,CULEBRAS",-9.93662,-78.2014,39,2008,QUITA SOMBERO,jass - quita sombrero,700,140,NO,NO,NO,NO,NO,NO
Sistema de AMPANU,136207,Perú,"ANCASH,HUARMEY,CULEBRAS",-9.90977,-78.1642,118,2000,AMPANU,Prestador de AMPANU,115,23,NO,NO,NO,NO,NO,NO
Sistema de MOLINO,136208,Perú,"ANCASH,HUARMEY,CULEBRAS",-9.88167,-78.1143,191,2000,MOLINO,Prestador de MOLINO,550,110,NO,NO,NO,NO,NO,NO
Sistema de QUILLAPAMPA,136209,Perú,"ANCASH,HUARMEY,CULEBRAS",-9.8457,-78.0187,397,2004,QUILLAPAMPA,Prestador de QUILLAPAMPA,70,14,NO,NO,NO,NO,NO,NO
Sistema de CHINCHAY,136211,Perú,"ANCASH,HUAYLAS,CARAZ",-9.01168,-77.7833,3409,1997,CHINCHAY,asociacion civil jass chincha,81.14035087719299,37,NO,NO,NO,NO,NO,NO
Sistema de ALLAUCA,136217,Perú,"ANCASH,HUAYLAS,CARAZ",-9.03421,-77.8228,2251,2000,ALLAUCA,jass allauca,693.3333333333333,260,NO,NO,NO,NO,NO,NO
Sistema de PATY,136222,Perú,"ANCASH,HUAYLAS,CARAZ",-9.00239,-77.8085,2408,2014,PATY,JASS PATY,150,150,NO,NO,NO,NO,NO,NO
Sistema de CHUCHINPAMPA,136237,Perú,"ANCASH,HUAYLAS,CARAZ",-9.04256,-77.745,3201,2014,CHUCHINPAMPA,chuchimpampa,97,27,NO,NO,NO,NO,NO,NO
Sistema de PAMPAROMAS,136251,Perú,"ANCASH,HUAYLAS,PAMPAROMAS",-9.07318,-77.982,2783,1987,PAMPAROMAS,Municipalidad de PAMPAROMAS,1190,238,NO,NO,NO,NO,NO,NO
Sistema de PUQUIO,136259,Perú,"ANCASH,HUAYLAS,PAMPAROMAS",-9.07718,-77.9696,3089,1980,PUQUIO,COMIT,244,61,NO,NO,NO,NO,NO,SI
Sistema de ALLMAY,136270,Perú,"ANCASH,HUAYLAS,PUEBLO LIBRE",-9.1342,-77.8195,2953,1999,ALLMAY,JUNTA ADMINISTRADORA DE AGUA POTABLE,333.9285714285714,85,NO,NO,NO,NO,NO,NO
Sistema de ANTIRCAN,136273,Perú,"ANCASH,HUAYLAS,PUEBLO LIBRE",-9.17297,-77.8088,3482,1993,ANTIRCAN,COMIT,125,25,NO,NO,NO,NO,NO,NO
Sistema de HUASHTA CRUZ,136288,Perú,"ANCASH,HUAYLAS,PUEBLO LIBRE",-9.09717,-77.8807,3737,2000,HUASHTA CRUZ,Prestador de HUASHTA CRUZ,16,4,NO,NO,NO,NO,NO,NO
Sistema de CONZUZO,136348,Perú,"ANCASH,PALLASCA,PAMPAS",-8.17527,-77.8495,3694,2009,CONZUZO,junta directiva de agua potable,111.34883720930233,56,NO,NO,NO,NO,NO,NO
Sistema de PUYALLI,136351,Perú,"ANCASH,PALLASCA,PAMPAS",-8.17206,-77.9207,3191,2014,PUYALLI,LA JUNTA DE LA MUNICIPALIDAD DEL CENTRO POBLADO,751.1111111111111,156,NO,NO,NO,NO,NO,NO
Sistema de PAUCA,136421,Perú,"ANCASH,POMABAMBA,PAROBAMBA",-8.60483,-77.4087,3088,2004,PAUCA,COMIT,90,15,NO,NO,NO,NO,SI,NO
Sistema de AYACAYANA GRANDE,136444,Perú,"ANCASH,RECUAY,RECUAY",-9.70893,-77.4663,3682,2000,AYACAYANA GRANDE,comite de agua ayacayana grande,20,5,NO,NO,NO,NO,NO,NO
Sistema de PACHACOTO,136455,Perú,"ANCASH,RECUAY,CATAC",-9.85576,-77.4027,3753,1997,PACHACOTO,jass  pachacoto,112,28,NO,NO,NO,NO,NO,SI
Sistema de CATAC,136460,Perú,"ANCASH,RECUAY,CATAC",-9.80187,-77.431,3447,2000,CATAC,Municipalidad de CATAC,0,0,NO,NO,NO,NO,SI,SI
Sistema de HUACYON,136463,Perú,"ANCASH,RECUAY,LLACLLIN",-10.0941,-77.595,2511,2000,HUACYON,JASS DE HUACYON,230,80,NO,NO,NO,NO,NO,NO
Sistema de COMPINA,136474,Perú,"ANCASH,RECUAY,TICAPAMPA",-9.76122,-77.4389,3485,1995,COMPINA,jaSS CASERIO COMPINA,300,70,NO,NO,NO,NO,NO,NO
Sistema de NEPE,136501,Perú,"ANCASH,SANTA,NEPEÑA",-9.17263,-78.3614,142,1993,NEPE,Municipalidad de NEPE,672,168,NO,NO,NO,NO,NO,NO
Sistema de SAN JACINTO,136502,Perú,"ANCASH,SANTA,NEPEÑA",-9.14744,-78.2801,258,1993,SAN JACINTO,Municipalidad de NEPE,1016,254,NO,NO,NO,NO,NO,NO
Sistema de SAN JOSE,136503,Perú,"ANCASH,SANTA,NEPEÑA",-9.15624,-78.3272,198,1993,SAN JOSE,Municipalidad de NEPE,909.9463414634147,334,NO,NO,NO,NO,NO,NO
Sistema de CERRO BLANCO,136504,Perú,"ANCASH,SANTA,NEPEÑA",-9.18479,-78.3415,153,1993,CERRO BLANCO,Municipalidad de NEPE,366,122,NO,NO,NO,NO,NO,NO
Sistema de CAPELLANIA,136505,Perú,"ANCASH,SANTA,NEPEÑA",-9.20122,-78.3799,104,1993,CAPELLANIA,Municipalidad de NEPE,84,21,NO,NO,NO,NO,NO,NO
Sistema de HUACATAMBO,136506,Perú,"ANCASH,SANTA,NEPEÑA",-9.23306,-78.4194,51,1993,HUACATAMBO,Municipalidad de NEPE,408,102,NO,NO,NO,NO,NO,NO
Sistema de SAMANCO,136507,Perú,"ANCASH,SANTA,SAMANCO",-9.26191,-78.496,21,2000,SAMANCO,Municipalidad de SAMANCO,1666.6666666666667,500,NO,NO,NO,NO,NO,NO
Sistema de LOS CHIMUS,136508,Perú,"ANCASH,SANTA,SAMANCO",-9.31907,-78.4765,8,2000,LOS CHIMUS,Municipalidad de SAMANCO,275,110,NO,NO,NO,NO,NO,NO
Sistema de LA CAPILLA,136509,Perú,"ANCASH,SANTA,SAMANCO",-9.26429,-78.474,21,2000,LA CAPILLA,Municipalidad de SAMANCO,275,110,NO,NO,NO,NO,NO,NO
Sistema de QUITACANCHA,136599,Perú,"ANCASH,YUNGAY,QUILLO",-9.36,-77.9518,2786,2000,QUITACANCHA,JASS QUITACANCHA,88,22,NO,NO,NO,NO,NO,NO
Sistema de VAQUERIA,136616,Perú,"ANCASH,YUNGAY,YANAMA",-9.01133,-77.5337,3642,2005,VAQUERIA,comite de agua potable de vaqueria,65,13,NO,NO,NO,NO,NO,NO
Sistema de COLLO,136617,Perú,"ANCASH,YUNGAY,YANAMA",-9.0093,-77.5175,3492,1992,COLLO,comite de agua potable sector collo,70,14,NO,NO,NO,NO,NO,SI
Sistema de PACHACHIN,136621,Perú,"ANCASH,YUNGAY,YANAMA",-9.00684,-77.5028,3151,1992,PACHACHIN,USUARIOS PACHACHIN,10,4,NO,NO,NO,NO,NO,NO
Sistema de CCOCHARAY,136659,Perú,"APURIMAC,ABANCAY,CURAHUASI",-13.5432,-72.7135,2653,1980,CCOCHARAY,JASS CCOCHARAY,244.70588235294116,80,NO,NO,NO,NO,NO,NO
Sistema de CUNYAC,136687,Perú,"APURIMAC,ABANCAY,CURAHUASI",-13.5636,-72.5766,1891,1995,CUNYAC,Prestador de CUNYAC,0,0,NO,NO,NO,NO,NO,NO
Sistema de KARQUEQUE,136690,Perú,"APURIMAC,ABANCAY,HUANIPACA",-13.4533,-73.0441,2435,1998,KARQUEQUE,JASS KARQUEQUE,225,45,NO,NO,NO,NO,NO,NO
Sistema de SORCCA,136691,Perú,"APURIMAC,ABANCAY,HUANIPACA",-13.5083,-72.9945,3170,1997,SORCCA,JASS SORCCA,165,33,NO,NO,NO,NO,NO,NO
Sistema de HUANSO,136870,Perú,"APURIMAC,ANTABAMBA,ANTABAMBA",-14.4026,-72.8579,3973,2007,HUANSO,Municipalidad de ANTABAMBA,63,21,NO,NO,NO,NO,NO,NO
Sistema de PROMESA,136895,Perú,"APURIMAC,AYMARAES,COTARUSE",-14.4812,-73.2469,4054,1997,PROMESA,JASS PROMESA,278.1021897810219,127,NO,NO,NO,NO,NO,NO
Sistema de FUERABAMBA,137019,Perú,"APURIMAC,COTABAMBAS,CHALLHUAHUACHO",-14.0959,-72.2925,3837,2014,FUERABAMBA,Prestador de FUERABAMBA,2000,524,NO,NO,NO,NO,NO,NO
Sistema de HUALLHUA,137069,Perú,"APURIMAC,CHINCHEROS,HUACCANA",-13.3621,-73.7008,3442,1994,HUALLHUA,jass huallhua,240,60,NO,NO,NO,NO,NO,NO
Sistema de SOL NACIENTE,137168,Perú,"AREQUIPA,AREQUIPA,CERRO COLORADO",-16.4036,-71.5893,2368,2000,SOL NACIENTE,sol naciente,150,57,NO,NO,NO,NO,NO,NO
Sistema de SABANDIA,137196,Perú,"AREQUIPA,AREQUIPA,SABANDIA",-16.4569,-71.4946,2775,2000,SABANDIA,sedapar,546.9285714285714,260,NO,NO,NO,NO,NO,NO
Sistema de YURA VIEJO,137221,Perú,"AREQUIPA,AREQUIPA,YURA",-16.2155,-71.7021,2600,2005,YURA VIEJO,Municipalidad de YURA,440,220,NO,NO,NO,NO,NO,NO
Sistema de UYUPAMPA,137222,Perú,"AREQUIPA,AREQUIPA,YURA",-16.2004,-71.6766,2650,2005,UYUPAMPA,Prestador de UYUPAMPA,108.33333333333333,50,NO,NO,NO,NO,NO,NO
Sistema de SANTA ELIZABETH BAJA,137226,Perú,"AREQUIPA,CAMANA,MARISCAL CACERES",-16.549,-72.8528,28,2007,SANTA ELIZABETH BAJA,Prestador de SANTA ELIZABETH BAJA,175,70,NO,NO,NO,NO,NO,NO
Sistema de PUCCHUN,137228,Perú,"AREQUIPA,CAMANA,MARISCAL CACERES",-16.5988,-72.7747,25,2000,PUCCHUN,Prestador de PUCCHUN,5545,1109,NO,NO,NO,NO,NO,NO
Sistema de PANARCANA,137231,Perú,"AREQUIPA,CAMANA,OCOÑA",-16.3308,-73.1387,93,2006,PANARCANA,jass panarcana,27,36,NO,NO,NO,NO,SI,SI
Sistema de OCO,137235,Perú,"AREQUIPA,CAMANA,OCOÑA",-16.4315,-73.1049,11,1991,OCO,Municipalidad de OCO,1694.1176470588236,800,NO,NO,NO,NO,NO,NO
Sistema de LA PAMPA,137236,Perú,"AREQUIPA,CAMANA,SAMUEL PASTOR",-16.6141,-72.6993,108,1995,LA PAMPA,Municipalidad de SAMUEL PASTOR,450,900,NO,NO,NO,NO,NO,NO
Sistema de BAJO HUARANGAL,137237,Perú,"AREQUIPA,CAMANA,SAMUEL PASTOR",-16.5987,-72.7048,110,1994,BAJO HUARANGAL,comite central de agua y desague,404.79999999999995,80,NO,NO,NO,NO,SI,SI
Sistema de YOLANDA,137238,Perú,"AREQUIPA,CAMANA,SAMUEL PASTOR",-16.6174,-72.6879,23,2000,YOLANDA,Municipalidad de SAMUEL PASTOR,30,6,NO,NO,NO,NO,SI,SI
Sistema de HABITAT LA PAMPA,137239,Perú,"AREQUIPA,CAMANA,SAMUEL PASTOR",-16.6206,-72.6838,307,2013,HABITAT LA PAMPA,Municipalidad de SAMUEL PASTOR,370,274,NO,NO,NO,NO,NO,NO
Sistema de PAMPA BAJA,137240,Perú,"AREQUIPA,CAMANA,SAMUEL PASTOR",-16.6175,-72.6927,88,1995,PAMPA BAJA,Municipalidad de SAMUEL PASTOR,74,74,NO,NO,NO,NO,NO,NO
Sistema de BELLA UNION,137241,Perú,"AREQUIPA,CAMANA,SAMUEL PASTOR",-16.6215,-72.6843,15,2013,BELLA UNION,Municipalidad de SAMUEL PASTOR,600,249,NO,NO,NO,NO,NO,NO
Sistema de LA YESERA,137242,Perú,"AREQUIPA,CAMANA,SAMUEL PASTOR",-16.6334,-72.6901,15,2013,LA YESERA,Municipalidad de SAMUEL PASTOR,70,14,NO,NO,NO,NO,SI,SI
Sistema de BUENOS AIRES,137243,Perú,"AREQUIPA,CAMANA,SAMUEL PASTOR",-16.6364,-72.6811,15,2000,BUENOS AIRES,Municipalidad de SAMUEL PASTOR,325,65,NO,NO,NO,NO,NO,NO
Sistema de LA BOYA,137244,Perú,"AREQUIPA,CAMANA,SAMUEL PASTOR",-16.6364,-72.6995,15,2000,LA BOYA,jaap- la boya,600,120,NO,NO,NO,NO,NO,NO
Sistema de EL MONTE,137246,Perú,"AREQUIPA,CAMANA,SAMUEL PASTOR",-16.6078,-72.7105,24,2000,EL MONTE,sedapar,250,50,NO,NO,NO,NO,NO,NO
Sistema de EL CHORRO,137247,Perú,"AREQUIPA,CAMANA,SAMUEL PASTOR",-16.6515,-72.6998,4,2013,EL CHORRO,Municipalidad de SAMUEL PASTOR,11,2,NO,NO,NO,NO,NO,NO
Sistema de EL POZO,137260,Perú,"AREQUIPA,CARAVELI,HUANUHUANU",-15.6304,-74.0585,1206,2000,EL POZO,Prestador de EL POZO,25.714285714285715,40,NO,NO,NO,NO,NO,NO
Sistema de MOLLEHUACA,137261,Perú,"AREQUIPA,CARAVELI,HUANUHUANU",-15.628,-74.0477,1381,2001,MOLLEHUACA,servicios b,616.6666666666667,370,NO,NO,NO,NO,NO,NO
Sistema de HUANCARIRE,137262,Perú,"AREQUIPA,CARAVELI,HUANUHUANU",-15.4999,-73.9146,3950,1998,HUANCARIRE,no especifica,12,15,NO,NO,NO,NO,NO,NO
Sistema de HUANUHUANU,137263,Perú,"AREQUIPA,CARAVELI,HUANUHUANU",-15.5448,-73.9235,2509,1998,HUANUHUANU,no especifica,52.800000000000004,33,NO,NO,NO,NO,NO,NO
Sistema de TOCOTA,137264,Perú,"AREQUIPA,CARAVELI,HUANUHUANU",-15.6587,-74.091,961,2007,TOCOTA,Municipalidad de HUANUHUANU,102,60,NO,NO,NO,NO,NO,NO
Sistema de JAQUI,137265,Perú,"AREQUIPA,CARAVELI,JAQUI",-15.4788,-74.4438,1178,2000,JAQUI,Municipalidad de JAQUI,1734.8653061224488,461,NO,NO,NO,NO,NO,NO
Sistema de ANIMAS,137267,Perú,"AREQUIPA,CARAVELI,QUICACHA",-15.6779,-73.8143,1412,2000,ANIMAS,Prestador de ANIMAS,7,3,NO,NO,NO,NO,NO,NO
Sistema de CHACONES,137289,Perú,"AREQUIPA,CASTILLA,HUANCARQUI",-16.0916,-72.4769,627,2014,CHACONES,jass,4,4,NO,NO,NO,NO,NO,NO
Sistema de CUCULINTAY,137290,Perú,"AREQUIPA,CASTILLA,HUANCARQUI",-16.0809,-72.4803,655,2014,CUCULINTAY,comit,3.75,3,NO,NO,NO,NO,NO,NO
Sistema de CALLEJONES,137291,Perú,"AREQUIPA,CASTILLA,HUANCARQUI",-16.0974,-72.4803,594,2014,CALLEJONES,las islas,20,5,NO,NO,NO,NO,NO,NO
Sistema de EL CONTO,137292,Perú,"AREQUIPA,CASTILLA,HUANCARQUI",-16.0947,-72.4867,613,2014,EL CONTO,las islas,12,3,NO,NO,NO,NO,NO,NO
Sistema de LA LAJA,137293,Perú,"AREQUIPA,CASTILLA,HUANCARQUI",-16.107,-72.4703,604,2008,LA LAJA,la laja,60,15,NO,NO,NO,NO,NO,NO
Sistema de LAS TIENDAS,137294,Perú,"AREQUIPA,CASTILLA,HUANCARQUI",-16.0994,-72.4739,606,1969,LAS TIENDAS,Municipalidad de HUANCARQUI,245,0,NO,NO,NO,NO,NO,NO
Sistema de EL MAJUELO,137295,Perú,"AREQUIPA,CASTILLA,HUANCARQUI",-16.1179,-72.4681,633,1969,EL MAJUELO,comite del agua de las islas,132,0,NO,NO,NO,NO,NO,NO
Sistema de HUANCARQUI,137296,Perú,"AREQUIPA,CASTILLA,HUANCARQUI",-16.0964,-72.4724,622,1969,HUANCARQUI,Prestador de HUANCARQUI,68,0,NO,NO,NO,NO,NO,NO
Sistema de ALLHUIRE,137321,Perú,"AREQUIPA,CASTILLA,ORCOPAMPA",-15.3027,-72.2918,4215,2002,ALLHUIRE,Prestador de ALLHUIRE,30,25,NO,NO,NO,NO,NO,SI
Sistema de WICHAYPANAHUA,137322,Perú,"AREQUIPA,CASTILLA,ORCOPAMPA",-15.3671,-72.2988,4208,2006,WICHAYPANAHUA,Prestador de WICHAYPANAHUA,45,15,NO,NO,NO,NO,NO,NO
Sistema de URAYPANAHUA,137324,Perú,"AREQUIPA,CASTILLA,ORCOPAMPA",-15.3653,-72.3059,4152,2006,URAYPANAHUA,Prestador de URAYPANAHUA,66,22,NO,NO,NO,NO,NO,NO
Sistema de SAN ANTONIO,137330,Perú,"AREQUIPA,CASTILLA,PAMPACOLCA",-15.6887,-72.6037,2985,1969,SAN ANTONIO,Municipalidad de PAMPACOLCA,520,0,NO,NO,NO,NO,NO,NO
Sistema de YATO,137331,Perú,"AREQUIPA,CASTILLA,PAMPACOLCA",-15.7184,-72.5246,3335,1969,YATO,no sabe,1291.5,0,NO,NO,NO,NO,NO,NO
Sistema de ESCAURA GRANDE,137332,Perú,"AREQUIPA,CASTILLA,PAMPACOLCA",-15.7067,-72.5478,3326,1969,ESCAURA GRANDE,no sabe,300,0,NO,NO,NO,NO,NO,NO
Sistema de OBRASPAMPA,137333,Perú,"AREQUIPA,CASTILLA,PAMPACOLCA",-15.7337,-72.5592,3317,1969,OBRASPAMPA,Prestador de OBRASPAMPA,116,0,NO,NO,NO,NO,NO,NO
Sistema de ESCAURA CHICO,137334,Perú,"AREQUIPA,CASTILLA,PAMPACOLCA",-15.7164,-72.5397,3320,1969,ESCAURA CHICO,no sabe,350,0,NO,NO,NO,NO,NO,NO
Sistema de HUANCOR,137335,Perú,"AREQUIPA,CASTILLA,PAMPACOLCA",-15.7087,-72.5913,3306,1969,HUANCOR,Municipalidad de PAMPACOLCA,23.333333333333336,0,NO,NO,NO,NO,NO,NO
Sistema de PUCCRO,137336,Perú,"AREQUIPA,CASTILLA,PAMPACOLCA",-15.7208,-72.5849,3245,1969,PUCCRO,Prestador de PUCCRO,22.5,0,NO,NO,NO,NO,NO,NO
Sistema de OCHURO,137400,Perú,"AREQUIPA,CONDESUYOS,ANDARAY",-15.7468,-72.8066,3881,2013,OCHURO,comite de agua,24,6,NO,NO,NO,NO,NO,SI
Sistema de CHICHAS,137405,Perú,"AREQUIPA,CONDESUYOS,CHICHAS",-15.5477,-72.9185,2152,1998,CHICHAS,Municipalidad de CHICHAS,85.8688524590164,54,NO,NO,NO,NO,NO,NO
Sistema de SANTA ROSA,137406,Perú,"AREQUIPA,CONDESUYOS,CHICHAS",-15.5499,-72.9234,2117,2010,SANTA ROSA,Municipalidad de CHICHAS,50.38095238095239,23,NO,NO,NO,NO,NO,NO
Sistema de YACHANQUILLO,137410,Perú,"AREQUIPA,CONDESUYOS,CHICHAS",-15.5534,-72.9616,1881,2006,YACHANQUILLO,organizacion comunal,28.6,22,NO,NO,NO,NO,SI,NO
Sistema de SANTA CATALINA,137411,Perú,"AREQUIPA,CONDESUYOS,CHICHAS",-15.5619,-72.9401,2402,1998,SANTA CATALINA,Municipalidad de CHICHAS,21.46153846153846,18,NO,NO,NO,NO,NO,NO
Sistema de CHANCHALLAY,137412,Perú,"AREQUIPA,CONDESUYOS,CHICHAS",-15.5587,-72.97,4215,1998,CHANCHALLAY,poblacion,26.88,16,NO,NO,NO,NO,NO,NO
Sistema de CHILPACAY,137413,Perú,"AREQUIPA,CONDESUYOS,CHICHAS",-15.566,-73.0929,3331,2010,CHILPACAY,comite de agua,8,4,NO,NO,NO,NO,NO,NO
Sistema de IQUIPI,137422,Perú,"AREQUIPA,CONDESUYOS,RIO GRANDE",-15.9414,-73.131,488,2009,IQUIPI,Municipalidad de RIO GRANDE,775,155,NO,NO,NO,NO,NO,NO
Sistema de COCACHACRA,137427,Perú,"AREQUIPA,ISLAY,COCACHACRA",-17.0894,-71.7591,96,1969,COCACHACRA,sedapar,4044.0459574468086,1932,NO,NO,NO,NO,NO,NO
Sistema de CHUCARAPI,137428,Perú,"AREQUIPA,ISLAY,COCACHACRA",-17.0717,-71.7219,109,2000,CHUCARAPI,Municipalidad de COCACHACRA,468.75,125,NO,NO,NO,NO,NO,NO
Sistema de PAMPA BLANCA,137429,Perú,"AREQUIPA,ISLAY,COCACHACRA",-17.0765,-71.7229,119,2000,PAMPA BLANCA,Municipalidad de COCACHACRA,152,38,NO,NO,NO,NO,NO,NO
Sistema de DESAMPARADOS,137430,Perú,"AREQUIPA,ISLAY,COCACHACRA",-17.0137,-71.6649,189,2000,DESAMPARADOS,no sabe,17.142857142857142,12,NO,NO,NO,NO,NO,NO
Sistema de QUELGUA GRANDE,137431,Perú,"AREQUIPA,ISLAY,COCACHACRA",-17.0133,-71.5542,358,2000,QUELGUA GRANDE,quelgua,80,16,NO,NO,NO,NO,NO,NO
Sistema de EL CARRIZAL,137432,Perú,"AREQUIPA,ISLAY,COCACHACRA",-17.0276,-71.5259,390,2000,EL CARRIZAL,no sabe,200,45,NO,NO,NO,NO,NO,NO
Sistema de LA AYANQUERA,137433,Perú,"AREQUIPA,ISLAY,COCACHACRA",-17.0189,-71.673,183,1990,LA AYANQUERA,no sabe,27.36,18,NO,NO,NO,NO,NO,NO
Sistema de EL FISCAL,137434,Perú,"AREQUIPA,ISLAY,COCACHACRA",-17.0319,-71.7067,186,1996,EL FISCAL,jass avis el filcal,480,120,NO,NO,NO,NO,NO,NO
Sistema de BUENOS AIRES,137435,Perú,"AREQUIPA,ISLAY,COCACHACRA",-17.0653,-71.718,125,2000,BUENOS AIRES,Municipalidad de COCACHACRA,6.428571428571428,15,NO,NO,NO,NO,NO,NO
Sistema de VERACRUZ CHICA,137436,Perú,"AREQUIPA,ISLAY,COCACHACRA",-17.1012,-71.7814,40,2000,VERACRUZ CHICA,no sabe,108.75,29,NO,NO,NO,NO,NO,NO
Sistema de VICTOR ANDRES BELAUNDE,137437,Perú,"AREQUIPA,ISLAY,COCACHACRA",-17.109,-71.7779,50,2000,VICTOR ANDRES BELAUNDE,sedapar,160,40,NO,NO,NO,NO,NO,NO
Sistema de JUVENTUD COLONIAL,137438,Perú,"AREQUIPA,ISLAY,COCACHACRA",-17.1118,-71.7728,50,2000,JUVENTUD COLONIAL,sedapar,104,26,NO,NO,NO,NO,NO,NO
Sistema de EL TORO,137440,Perú,"AREQUIPA,ISLAY,COCACHACRA",-16.9857,-71.6277,247,2000,EL TORO,jass el toro,504.16666666666663,110,NO,NO,NO,NO,NO,NO
Sistema de ALTO ENSENADA,137444,Perú,"AREQUIPA,ISLAY,DEAN VALDIVIA",-17.1073,-71.8482,112,1999,ALTO ENSENADA,Municipalidad de DEAN VALDIVIA,1184,296,NO,NO,NO,NO,NO,NO
Sistema de ACOCRO,137473,Perú,"AYACUCHO,HUAMANGA,ACOCRO",-13.2191,-74.0419,3261,2003,ACOCRO,jass acocro,374.7957446808511,187,NO,NO,NO,NO,NO,NO
Sistema de PAMPAMARCA BAJA,137474,Perú,"AYACUCHO,HUAMANGA,ACOCRO",-13.2455,-74.0321,3429,2003,PAMPAMARCA BAJA,jass pampamarca,180,60,NO,NO,NO,NO,NO,NO
Sistema de POMAPUQUIO,137475,Perú,"AYACUCHO,HUAMANGA,ACOCRO",-13.2387,-74.058,3435,2003,POMAPUQUIO,JASS PUMAPUQUIO,308.9655172413793,140,NO,NO,NO,NO,NO,NO
Sistema de PAMPAMARCA ALTA,137476,Perú,"AYACUCHO,HUAMANGA,ACOCRO",-13.259,-74.0449,3485,2003,PAMPAMARCA ALTA,JASS,325.5882352941176,90,NO,NO,NO,NO,NO,NO
Sistema de SAN JUAN DE RAYAN,137478,Perú,"AYACUCHO,HUAMANGA,ACOCRO",-13.2641,-74.0009,3250,2004,SAN JUAN DE RAYAN,JASS - SAN JUAN DE RAYAN,260,65,NO,NO,NO,NO,NO,NO
Sistema de REMILLAPATA,141463,Perú,"AYACUCHO,HUAMANGA,CHIARA",-13.5292,-74.07,3382,2000,REMILLAPATA,jass remillapata,230,46,NO,NO,NO,NO,NO,NO
Sistema de AGUAPUQUIO,141466,Perú,"AYACUCHO,HUAMANGA,CHIARA",-13.287,-74.2388,3921,2005,AGUAPUQUIO,JASS AGUAPUCYO,96,24,NO,NO,NO,NO,NO,NO
Sistema de LARAMPAMPA,141485,Perú,"AYACUCHO,HUAMANGA,QUINUA",-13.0508,-74.1585,3162,1999,LARAMPAMPA,jass larampampa,175,35,NO,NO,NO,NO,NO,NO
Sistema de CCOLLCCETUPO,141488,Perú,"AYACUCHO,HUAMANGA,QUINUA",-13.0498,-74.1689,2983,2003,CCOLLCCETUPO,jass ccollccetupo,185.25,39,NO,NO,NO,NO,NO,NO
Sistema de LLAMAHUILLCA,141489,Perú,"AYACUCHO,HUAMANGA,QUINUA",-13.0528,-74.1705,2988,2013,LLAMAHUILLCA,JASS LLAMAHUILLCA,262.5,75,NO,NO,NO,NO,NO,NO
Sistema de VISTA ALEGRE,141496,Perú,"AYACUCHO,HUAMANGA,QUINUA",-13.0809,-74.1578,2774,1999,VISTA ALEGRE,jass vista alegre,135,30,NO,NO,NO,NO,NO,NO
Sistema de CCERAYOCC,141497,Perú,"AYACUCHO,HUAMANGA,QUINUA",-13.0594,-74.1545,3101,1999,CCERAYOCC,JASS CCERAYOCC,159.42857142857144,31,NO,NO,NO,NO,NO,NO
Sistema de SAN PEDRO DE MOSOCCALLPA,141537,Perú,"AYACUCHO,HUAMANGA,TAMBILLO",-13.2332,-74.1208,3292,2012,SAN PEDRO DE MOSOCCALLPA,jass san pedro de mosoccallpa,150.85714285714286,64,NO,NO,NO,NO,NO,NO
Sistema de PUNCUPATA,141584,Perú,"AYACUCHO,CANGALLO,CHUSCHI",-13.4665,-74.4001,3851,2008,PUNCUPATA,jass puncupata,615,123,NO,NO,NO,NO,NO,SI
Sistema de LLOQLLASQA (CHOCCEPAMPA),141641,Perú,"AYACUCHO,CANGALLO,TOTOS",-13.6077,-74.5304,3163,2011,LLOQLLASQA (CHOCCEPAMPA),jass llollasqa,350,140,NO,NO,NO,NO,NO,NO
Sistema de SAN MIGUEL DE MANCHIRI,141660,Perú,"AYACUCHO,HUANCA SANCOS,CARAPO",-13.7812,-74.3109,3254,2010,SAN MIGUEL DE MANCHIRI,jass manchi,441.9213973799126,220,NO,NO,NO,NO,NO,NO
Sistema de INTAY,141710,Perú,"AYACUCHO,HUANTA,LURICOCHA",-12.9014,-74.2697,2625,1993,INTAY,jass intay,770,154,NO,NO,NO,NO,NO,NO
Sistema de LURICOCHA,141718,Perú,"AYACUCHO,HUANTA,LURICOCHA",-12.8992,-74.274,2607,2012,LURICOCHA,jass luricocha,1600,320,NO,NO,NO,NO,NO,SI
Sistema de SIVIA,141731,Perú,"AYACUCHO,HUANTA,SIVIA",-12.5115,-73.8588,571,2013,SIVIA,Municipalidad de SIVIA,888.8888888888889,800,NO,NO,NO,NO,NO,NO
Sistema de NUEVA ALIANZA,141737,Perú,"AYACUCHO,HUANTA,SIVIA",-12.5843,-73.8824,1122,2000,NUEVA ALIANZA,Prestador de NUEVA ALIANZA,191.5081967213115,59,NO,NO,NO,NO,NO,NO
Sistema de TRIBOLINE ALTA,141738,Perú,"AYACUCHO,HUANTA,SIVIA",-12.5687,-73.9049,1376,2000,TRIBOLINE ALTA,Prestador de TRIBOLINE ALTA,168,42,NO,NO,NO,NO,NO,NO
Sistema de TRIBOLINE,141739,Perú,"AYACUCHO,HUANTA,SIVIA",-12.5801,-73.8597,851,2003,TRIBOLINE,triboline,786,262,NO,NO,NO,NO,NO,NO
Sistema de TUTIRUCHAYOCC,141740,Perú,"AYACUCHO,HUANTA,SIVIA",-12.5088,-73.8664,597,2013,TUTIRUCHAYOCC,Municipalidad de SIVIA,51.2,32,NO,NO,NO,NO,NO,NO
Sistema de NUEVA ESPERANZA ALTA,141742,Perú,"AYACUCHO,HUANTA,LLOCHEGUA",-12.4471,-73.9011,572,2002,NUEVA ESPERANZA ALTA,jass nueva esperanza,110,55,NO,NO,NO,NO,NO,NO
Sistema de JUNIN LIBERTAD,141743,Perú,"AYACUCHO,HUANTA,LLOCHEGUA",-12.3885,-74.0144,1135,2002,JUNIN LIBERTAD,JUNTA COMUNAL JUNIN LIBERTAD,444.44444444444446,120,NO,NO,NO,NO,NO,NO
Sistema de CHIHUILLO ALTO SAN ANTONIO,141745,Perú,"AYACUCHO,HUANTA,LLOCHEGUA",-12.435,-73.9584,1007,1994,CHIHUILLO ALTO SAN ANTONIO,jass san antonio,936,234,NO,NO,NO,NO,NO,NO
Sistema de PULPITO ALTA,141746,Perú,"AYACUCHO,HUANTA,LLOCHEGUA",-12.4587,-73.953,1390,2009,PULPITO ALTA,jass pulpito alto,800,200,NO,NO,NO,NO,NO,NO
Sistema de LOS ANGELES,141747,Perú,"AYACUCHO,HUANTA,LLOCHEGUA",-12.4274,-74.0063,907,2006,LOS ANGELES,jass los ANGELES - MONTEVIDEO,472,118,NO,NO,NO,NO,NO,NO
Sistema de GLORIA AMARGURA,141748,Perú,"AYACUCHO,HUANTA,LLOCHEGUA",-12.4165,-73.9771,691,2000,GLORIA AMARGURA,JASS GLORIA AMARGURA,460,115,NO,NO,NO,NO,NO,NO
Sistema de QUINUAS,141753,Perú,"AYACUCHO,LA MAR,SAN MIGUEL",-12.9846,-73.967,3135,2013,QUINUAS,jass quinuas,30,18,NO,NO,NO,NO,NO,NO
Sistema de QASANQA,141758,Perú,"AYACUCHO,LA MAR,SAN MIGUEL",-13.0089,-73.9343,3194,2012,QASANQA,JASS QASANQA,150,30,NO,NO,NO,NO,NO,SI
Sistema de ALLPACORRAL,141759,Perú,"AYACUCHO,LA MAR,SAN MIGUEL",-12.9717,-73.9809,3135,2012,ALLPACORRAL,JASS ALLPACORRAL,80,20,NO,NO,NO,NO,NO,SI
Sistema de CUYPAMPA,141763,Perú,"AYACUCHO,LA MAR,SAN MIGUEL",-13.0059,-73.9718,2837,2013,CUYPAMPA,jass cuypampa,80,20,NO,NO,NO,NO,NO,NO
Sistema de PARIAHUANCA,141770,Perú,"AYACUCHO,LA MAR,SAN MIGUEL",-12.9915,-73.9541,3101,2012,PARIAHUANCA,jass pariahuanca,325,65,NO,NO,NO,NO,NO,NO
Sistema de VISTA ALEGRE,141773,Perú,"AYACUCHO,LA MAR,SAN MIGUEL",-12.9891,-73.9329,3259,2014,VISTA ALEGRE,JASS COMUNIDAD VISTA ALEGRE,165,33,NO,NO,NO,NO,NO,NO
Sistema de HUAYRURPATA,141798,Perú,"AYACUCHO,LA MAR,ANCO",-13.0202,-73.496,1024,2014,HUAYRURPATA,jass-huayrurpata,250.00000000000003,60,NO,NO,NO,NO,NO,NO
Sistema de ROSAS PATA,141799,Perú,"AYACUCHO,LA MAR,ANCO",-13.0031,-73.5732,1472,2012,ROSAS PATA,JASS-ROSAS PATA,135,45,NO,NO,NO,NO,NO,SI
Sistema de PALTAYPATA,141800,Perú,"AYACUCHO,LA MAR,ANCO",-12.9715,-73.5487,1240,2009,PALTAYPATA,JASS-PALTAYPATA,81,45,NO,NO,NO,NO,NO,NO
Sistema de AYAORCCO,141802,Perú,"AYACUCHO,LA MAR,ANCO",-13.1081,-73.8065,3429,2011,AYAORCCO,jass - ayaorcco,75,25,NO,NO,NO,NO,NO,NO
Sistema de RAPI,141803,Perú,"AYACUCHO,LA MAR,ANCO",-13.1004,-73.8078,3148,2008,RAPI,Prestador de RAPI,66.88,22,NO,NO,NO,NO,NO,SI
Sistema de SAN CRISTOBAL DE ANCO,141806,Perú,"AYACUCHO,LA MAR,ANCO",-13.1171,-73.6903,3730,2009,SAN CRISTOBAL DE ANCO,jass - anco,86.76923076923077,47,NO,NO,NO,NO,NO,NO
Sistema de CCOLLPA,141811,Perú,"AYACUCHO,LA MAR,ANCO",-13.0529,-73.7019,3050,2006,CCOLLPA,JASS DEL ANEXO DE COLLPA,160,40,NO,NO,NO,NO,NO,NO
Sistema de LIBERTADORES,141819,Perú,"AYACUCHO,LA MAR,ANCO",-12.9764,-73.5225,813,2006,LIBERTADORES,JASS LIBERTADORES,55,11,NO,NO,NO,NO,NO,NO
Sistema de ACHUPA,141820,Perú,"AYACUCHO,LA MAR,ANCO",-13.0599,-73.4938,1186,2008,ACHUPA,JASS ACHUPA,121.33333333333333,28,NO,NO,NO,NO,NO,NO
Sistema de ROSARIO PAMPA,141821,Perú,"AYACUCHO,LA MAR,ANCO",-12.9625,-73.5725,1535,1996,ROSARIO PAMPA,JASS ROSARIO PAMPA,232,58,NO,NO,NO,NO,NO,NO
Sistema de LECHEMAYO,141824,Perú,"AYACUCHO,LA MAR,ANCO",-13.0088,-73.5139,730,2000,LECHEMAYO,JUNTA ADMINISTRADORA DE SERVICIOS DE SANEAMIENTO D,553.8461538461538,120,NO,NO,NO,NO,NO,SI
Sistema de AHUARUCHAYOCC,141833,Perú,"AYACUCHO,LA MAR,AYNA",-12.6586,-73.8051,1774,2002,AHUARUCHAYOCC,JASS AHUAROCHAYOCC,296.4705882352941,42,NO,NO,NO,NO,NO,NO
Sistema de SANTA CRUZ DE ROSARIO,141835,Perú,"AYACUCHO,LA MAR,AYNA",-12.6114,-73.8367,1085,2000,SANTA CRUZ DE ROSARIO,JASS SANTA CRUZ,72,18,NO,NO,NO,NO,NO,NO
Sistema de MACHENTE,141836,Perú,"AYACUCHO,LA MAR,AYNA",-12.7226,-73.8843,1291,2006,MACHENTE,JASS,222.13235294117646,57,NO,NO,NO,NO,NO,NO
Sistema de SAN ANTONIO,141837,Perú,"AYACUCHO,LA MAR,AYNA",-12.6207,-73.8297,1121,1994,SAN ANTONIO,JASS SAN ANTONIO,58.333333333333336,7,NO,NO,NO,NO,NO,NO
Sistema de ROSARIO,141838,Perú,"AYACUCHO,LA MAR,AYNA",-12.5994,-73.8301,1008,2007,ROSARIO,jass rosario,1215,270,NO,NO,NO,NO,NO,NO
Sistema de LAS PALMAS,141839,Perú,"AYACUCHO,LA MAR,AYNA",-12.652,-73.7678,603,2000,LAS PALMAS,JASS LAS PALMAS,120,32,NO,NO,NO,NO,NO,SI
Sistema de ARROYO NEGRO,141840,Perú,"AYACUCHO,LA MAR,AYNA",-12.6572,-73.8201,1185,2014,ARROYO NEGRO,JASS ARROYO NEGRO,21.333333333333332,12,NO,NO,NO,NO,NO,NO
Sistema de PAS,141841,Perú,"AYACUCHO,LA MAR,AYNA",-12.6543,-73.7903,1068,1999,PAS,Prestador de PAS,111.42857142857143,30,NO,NO,NO,NO,NO,NO
Sistema de SAN CRISTOBAL,141844,Perú,"AYACUCHO,LA MAR,AYNA",-12.6811,-73.8685,1183,1998,SAN CRISTOBAL,SIN NOMBRE,58,26,NO,NO,NO,NO,NO,NO
Sistema de SAN MARTIN,141847,Perú,"AYACUCHO,LA MAR,AYNA",-12.5662,-73.8288,747,2010,SAN MARTIN,JASS SAN MARTIN,450,100,NO,NO,NO,NO,NO,NO
Sistema de AURORA ALTA,141848,Perú,"AYACUCHO,LA MAR,AYNA",-12.7285,-73.9389,775,1997,AURORA ALTA,AURORA ALTA,150,40,NO,NO,NO,NO,NO,NO
Sistema de NUEVA FLORIDA (ZIATOS),141849,Perú,"AYACUCHO,LA MAR,AYNA",-12.6028,-73.8242,896,1995,NUEVA FLORIDA (ZIATOS),JASS SIATO,66.66666666666667,40,NO,NO,NO,NO,NO,NO
Sistema de HUAYCCO HUASI,141876,Perú,"AYACUCHO,LA MAR,LUIS CARRANZA",-13.2329,-73.8928,3045,2006,HUAYCCO HUASI,jass huayccohuasi,20.833333333333336,10,NO,NO,NO,NO,NO,NO
Sistema de SAN AGUSTIN,141879,Perú,"AYACUCHO,LA MAR,SANTA ROSA",-12.6721,-73.7863,1031,2014,SAN AGUSTIN,SAN AGUSTIN,480,111,NO,NO,NO,NO,NO,NO
Sistema de MARINTARI,141880,Perú,"AYACUCHO,LA MAR,SANTA ROSA",-12.7027,-73.7185,713,2013,MARINTARI,jass-marintari,1200,400,NO,NO,NO,NO,NO,NO
Sistema de NUEVA GENERACION,141881,Perú,"AYACUCHO,LA MAR,SANTA ROSA",-12.7265,-73.6903,1082,2010,NUEVA GENERACION,jass nueva generacion,100,25,NO,NO,NO,NO,NO,NO
Sistema de HUAYRAPATA,141882,Perú,"AYACUCHO,LA MAR,SANTA ROSA",-12.6909,-73.7807,1141,2014,HUAYRAPATA,jass- susynina,125,25,NO,NO,NO,NO,NO,NO
Sistema de MOZO BAMBA ALTA,141883,Perú,"AYACUCHO,LA MAR,SANTA ROSA",-12.7201,-73.6946,1126,2010,MOZO BAMBA ALTA,jass mozobamba alta,320,80,NO,NO,NO,NO,NO,NO
Sistema de NUEVA JERUSALEN,141885,Perú,"AYACUCHO,LA MAR,SANTA ROSA",-12.6929,-73.773,1025,2013,NUEVA JERUSALEN,jass susyni,65,13,NO,NO,NO,NO,NO,NO
Sistema de BUENA VISTA,141886,Perú,"AYACUCHO,LA MAR,SANTA ROSA",-12.6836,-73.7815,1093,2014,BUENA VISTA,jass susyni,120,30,NO,NO,NO,NO,NO,NO
Sistema de CRUZ VERDE,141890,Perú,"AYACUCHO,LA MAR,SANTA ROSA",-12.6838,-73.7898,1246,2014,CRUZ VERDE,jass-susyni,225,45,NO,NO,NO,NO,NO,NO
Sistema de RINCONADA BAJA,141891,Perú,"AYACUCHO,LA MAR,SANTA ROSA",-12.7243,-73.6721,710,2010,RINCONADA BAJA,jass rinconada baja,225,90,NO,NO,NO,NO,NO,NO
Sistema de COMUNPIARI,141892,Perú,"AYACUCHO,LA MAR,SANTA ROSA",-12.6928,-73.6956,714,2009,COMUNPIARI,jass comunpiari,1666.6666666666667,250,NO,NO,NO,NO,NO,NO
Sistema de CHAMAYRUCHAYOCC,141893,Perú,"AYACUCHO,LA MAR,SANTA ROSA",-12.7049,-73.6805,794,1999,CHAMAYRUCHAYOCC,jass chamayruchayocc,120,30,NO,NO,NO,NO,NO,SI
Sistema de SAN LUIS,141895,Perú,"AYACUCHO,LA MAR,SANTA ROSA",-12.7531,-73.7065,1140,2009,SAN LUIS,jass san luis,120,40,NO,NO,NO,NO,NO,NO
Sistema de VISTOSO,141896,Perú,"AYACUCHO,LA MAR,SANTA ROSA",-12.7377,-73.7032,1075,2009,VISTOSO,jass vistoso,90,30,NO,NO,NO,NO,NO,NO
Sistema de VISTA ALEGRE,141899,Perú,"AYACUCHO,LA MAR,TAMBO",-12.9417,-74.0188,3217,2010,VISTA ALEGRE,Municipalidad de TAMBO,2000,400,NO,NO,NO,NO,NO,NO
Sistema de MONTERRICO,141919,Perú,"AYACUCHO,LA MAR,SAMUGARI",-12.827,-73.5928,674,2000,MONTERRICO,JASS MONTERRICO,960,200,NO,NO,NO,NO,NO,NO
Sistema de CHONTABAMBA,141925,Perú,"AYACUCHO,LA MAR,SAMUGARI",-12.8178,-73.6751,839,2000,CHONTABAMBA,JASS CHONTABAMBA,350,70,NO,NO,NO,NO,NO,NO
Sistema de IRIBAMBA,141928,Perú,"AYACUCHO,LA MAR,SAMUGARI",-12.7537,-73.7005,960,2012,IRIBAMBA,JASS IRIBAMBA,240,60,NO,NO,NO,NO,NO,NO
Sistema de PIRIATO,141934,Perú,"AYACUCHO,LA MAR,SAMUGARI",-12.7725,-73.6387,719,2003,PIRIATO,JASS PIRIATO ZORSA,640,160,NO,NO,NO,NO,NO,NO
Sistema de AUCARA,141947,Perú,"AYACUCHO,LUCANAS,AUCARA",-14.2811,-73.9747,3230,2011,AUCARA,Municipalidad de AUCARA,1798.181818181818,500,NO,NO,NO,NO,NO,NO
Sistema de CABANA,141955,Perú,"AYACUCHO,LUCANAS,CABANA",-14.2885,-73.9671,3287,2000,CABANA,Municipalidad de CABANA,1751.4705882352941,750,NO,NO,NO,NO,NO,NO
Sistema de SEQUELLO,142103,Perú,"AYACUCHO,PAUCAR DEL SARA SARA,MARCABAMBA",-15.1019,-73.3311,2390,1975,SEQUELLO,Municipalidad de MARCABAMBA,121.73913043478262,60,NO,NO,NO,NO,NO,NO
Sistema de VISCHONGO,142205,Perú,"AYACUCHO,VILCAS HUAMAN,VISCHONGO",-13.5891,-73.9951,3133,2009,VISCHONGO,Municipalidad de VISCHONGO,1620,270,NO,NO,NO,NO,NO,NO
Sistema de BENDIZA,142267,Perú,"CAJAMARCA,CAJAMARCA,JESUS",-7.24241,-78.4001,2608,1988,BENDIZA,jaap bendiza,250,50,NO,NO,NO,NO,NO,NO
Sistema de PUCARITA,142368,Perú,"CAJAMARCA,CAJABAMBA,SITACOCHA",-7.52026,-77.8593,1271,2008,PUCARITA,jass pucarita,250,50,NO,NO,NO,NO,NO,NO
Sistema de PACHACHACA,142549,Perú,"CAJAMARCA,CUTERVO,CUTERVO",-6.37641,-78.8256,2694,1975,PACHACHACA,jass combo pachachaca,1000,153,NO,NO,NO,NO,NO,NO
Sistema de CACHACARA,142559,Perú,"CAJAMARCA,CUTERVO,CUTERVO",-6.42509,-78.8509,2772,2005,CACHACARA,cachara,1160,290,NO,NO,NO,NO,NO,NO
Sistema de LA SUCCHA,142587,Perú,"CAJAMARCA,CUTERVO,SANTO TOMAS",-6.15261,-78.6771,2109,2007,LA SUCCHA,jass la succha,365,73,NO,NO,NO,NO,NO,NO
Sistema de SANTO TOMAS,142588,Perú,"CAJAMARCA,CUTERVO,SANTO TOMAS",-6.15445,-78.6911,2144,1996,SANTO TOMAS,Municipalidad de SANTO TOMAS,1305,520,NO,NO,NO,NO,NO,NO
Sistema de SAN JUAN PAMPA,142590,Perú,"CAJAMARCA,CUTERVO,SANTO TOMAS",-6.13685,-78.6932,2124,2007,SAN JUAN PAMPA,JASS SAN JUAN PAMPA,236,59,NO,NO,NO,NO,NO,NO
Sistema de VIZA,142592,Perú,"CAJAMARCA,CUTERVO,SANTO TOMAS",-6.07236,-78.657,1726,2004,VIZA,JASS VIZA,475,95,NO,NO,NO,NO,SI,NO
Sistema de SAN ANTONIO,142613,Perú,"CAJAMARCA,CUTERVO,SOCOTA",-6.3324,-78.686,2125,2007,SAN ANTONIO,JASS SAN ANTONIO,300,100,NO,NO,NO,NO,NO,NO
Sistema de PASAUMACA,142670,Perú,"CAJAMARCA,HUALGAYOC,BAMBAMARCA",-6.78182,-78.5143,3005,1995,PASAUMACA,Pasaumaca,225,45,NO,NO,NO,NO,NO,NO
Sistema de PILANCONES,142698,Perú,"CAJAMARCA,HUALGAYOC,HUALGAYOC",-6.7407,-78.6214,3625,1995,PILANCONES,JASS PILANCONES,275,55,NO,NO,NO,NO,NO,NO
Sistema de TICUNGUE,142723,Perú,"CAJAMARCA,JAEN,BELLAVISTA",-5.49809,-78.825,719,1994,TICUNGUE,comite de agua ticungue,115,23,NO,NO,NO,NO,NO,NO
Sistema de INGURO,142726,Perú,"CAJAMARCA,JAEN,BELLAVISTA",-5.4719,-78.7178,440,1996,INGURO,COMITE DE AGUA INGURO,60,12,NO,NO,NO,NO,NO,NO
Sistema de LA GUAYABA,142731,Perú,"CAJAMARCA,JAEN,BELLAVISTA",-5.50806,-78.627,403,2009,LA GUAYABA,COMITE DE AGUA LA GUAYABA,205,41,NO,NO,NO,NO,NO,NO
Sistema de AMBATO TAMBORAPA,142732,Perú,"CAJAMARCA,JAEN,BELLAVISTA",-5.44744,-78.8345,559,2000,AMBATO TAMBORAPA,JASS AMBATO TAMBORAPA,1998.9999999999998,400,NO,NO,NO,NO,NO,NO
Sistema de LA FLORESTA,142734,Perú,"CAJAMARCA,JAEN,BELLAVISTA",-5.57396,-78.8054,725,1996,LA FLORESTA,COMITE DE AGUA LA FLORESTA,1200,200,NO,NO,NO,NO,NO,NO
Sistema de CHONTALI,142737,Perú,"CAJAMARCA,JAEN,CHONTALI",-5.64609,-79.0852,1754,2006,CHONTALI,Municipalidad de CHONTALI,1980,440,NO,NO,NO,NO,NO,NO
Sistema de HUABAL,142752,Perú,"CAJAMARCA,JAEN,HUABAL",-5.61361,-78.9123,1385,2013,HUABAL,Municipalidad de HUABAL,1940,388,NO,NO,NO,NO,NO,NO
Sistema de SAN ANTONIO,142757,Perú,"CAJAMARCA,JAEN,POMAHUACA",-5.97529,-79.2057,1000,2000,SAN ANTONIO,jass san antonio,55.01567398119123,54,NO,NO,NO,NO,NO,SI
Sistema de CHURUYACU,142759,Perú,"CAJAMARCA,JAEN,POMAHUACA",-5.81691,-79.0314,1049,2009,CHURUYACU,comite  de agua churuyacu,54.13333333333333,14,NO,NO,NO,NO,NO,SI
Sistema de LIMON PAMPA,142763,Perú,"CAJAMARCA,JAEN,POMAHUACA",-5.967,-79.2343,1311,2008,LIMON PAMPA,comite de agua limon pampa,81.45454545454545,28,NO,NO,NO,NO,NO,NO
Sistema de LA UNION,142765,Perú,"CAJAMARCA,JAEN,POMAHUACA",-5.89839,-79.235,1220,2014,LA UNION,jass la union,50,18,NO,NO,NO,NO,NO,SI
Sistema de ATOYE,142766,Perú,"CAJAMARCA,JAEN,POMAHUACA",-5.90481,-79.217,1005,1997,ATOYE,asociacion atoye,70,70,NO,NO,NO,NO,NO,SI
Sistema de CHICHAGUA,142767,Perú,"CAJAMARCA,JAEN,POMAHUACA",-5.95661,-79.2347,1051,1998,CHICHAGUA,comite de agua chichagua,60,12,NO,NO,NO,NO,NO,NO
Sistema de VIRGEN DEL CARMEN,142772,Perú,"CAJAMARCA,JAEN,POMAHUACA",-5.76864,-79.0393,1107,2008,VIRGEN DEL CARMEN,comite de agua virgen del carmen,186.046511627907,40,NO,NO,NO,NO,NO,SI
Sistema de CHIRIMOYO,142774,Perú,"CAJAMARCA,JAEN,POMAHUACA",-5.84382,-79.222,1171,2000,CHIRIMOYO,Municipalidad de POMAHUACA,125,25,NO,NO,NO,NO,NO,SI
Sistema de POMAHUACA,142782,Perú,"CAJAMARCA,JAEN,POMAHUACA",-5.93229,-79.2291,1089,2012,POMAHUACA,Municipalidad de POMAHUACA,3900,780,NO,NO,NO,NO,NO,NO
Sistema de LAS JUNTAS,142783,Perú,"CAJAMARCA,JAEN,POMAHUACA",-5.95074,-79.2282,1034,2012,LAS JUNTAS,Municipalidad de POMAHUACA,375,75,NO,NO,NO,NO,NO,NO
Sistema de EL ALGARROBO,142784,Perú,"CAJAMARCA,JAEN,POMAHUACA",-5.92674,-79.224,1212,2000,EL ALGARROBO,jass el algarrobo,240,48,NO,NO,NO,NO,NO,SI
Sistema de PALO BLANCO,142785,Perú,"CAJAMARCA,JAEN,POMAHUACA",-5.72725,-79.0452,1219,2014,PALO BLANCO,Municipalidad de POMAHUACA,1160,232,NO,NO,NO,NO,NO,NO
Sistema de TAMBILLO,142788,Perú,"CAJAMARCA,JAEN,POMAHUACA",-5.81688,-79.0873,1152,1995,TAMBILLO,comite de agua tambillo,750,150,NO,NO,NO,NO,NO,NO
Sistema de SAN ISIDRO DE LA VEGA,142789,Perú,"CAJAMARCA,JAEN,PUCARA",-6.00986,-79.1562,924,1993,SAN ISIDRO DE LA VEGA,JUNTA ADMINISTRADORA DE LOS SERVICIOS DE SANEAMIEN,165,33,NO,NO,NO,NO,NO,NO
Sistema de AYAHUACA,142790,Perú,"CAJAMARCA,JAEN,PUCARA",-6.01548,-79.0734,1977,2010,AYAHUACA,Prestador de AYAHUACA,43.78378378378378,12,NO,NO,NO,NO,NO,NO
Sistema de SAN JOSE,142793,Perú,"CAJAMARCA,JAEN,PUCARA",-6.04999,-79.1153,936,2013,SAN JOSE,JASS DE LA LOCALIDAD DE SAN JOSE,250,50,NO,NO,NO,NO,NO,NO
Sistema de PUENTE TECHINT,142798,Perú,"CAJAMARCA,JAEN,PUCARA",-6.05344,-79.0565,857,2000,PUENTE TECHINT,JUNTA ADMINISTRADORA DE LOS SERVICIOS DE SANEAMIEN,283.94366197183103,56,NO,NO,NO,NO,NO,NO
Sistema de PLAYA AZUL,142799,Perú,"CAJAMARCA,JAEN,PUCARA",-6.036,-79.0318,834,2000,PLAYA AZUL,JASS DE LA LOCALIDAD de  playa azul,600,100,NO,NO,NO,NO,NO,NO
Sistema de LA CHORRERA,142800,Perú,"CAJAMARCA,JAEN,PUCARA",-6.04428,-79.1309,901,2014,LA CHORRERA,Prestador de LA CHORRERA,60,12,NO,NO,NO,NO,NO,NO
Sistema de DOS DE MAYO,142844,Perú,"CAJAMARCA,SAN IGNACIO,SAN IGNACIO",-5.15494,-78.9681,1110,2000,DOS DE MAYO,COMITE DE AGUA DOS DE MAYO,198.33333333333331,68,NO,NO,NO,NO,NO,NO
Sistema de LOPEZ,142868,Perú,"CAJAMARCA,SAN IGNACIO,SAN IGNACIO",-5.135,-79.0329,1576,1995,LOPEZ,comite de agua lopez,218.35443037974684,69,NO,NO,NO,NO,NO,NO
Sistema de LA VI,142881,Perú,"CAJAMARCA,SAN IGNACIO,HUARANGO",-5.3058,-78.6899,715,2000,LA VI,LA VI,70,14,NO,NO,NO,NO,NO,NO
Sistema de PUERTO TABALOZO,142883,Perú,"CAJAMARCA,SAN IGNACIO,HUARANGO",-5.36421,-78.7594,441,2000,PUERTO TABALOZO,PUERTO TABALOSO,300,60,NO,NO,NO,NO,NO,NO
Sistema de MANO DE LA VIRGEN,142889,Perú,"CAJAMARCA,SAN IGNACIO,HUARANGO",-5.24876,-78.7618,911,2012,MANO DE LA VIRGEN,jass mano de la virgen,240,40,NO,NO,NO,NO,NO,NO
Sistema de EL LAUREL,142898,Perú,"CAJAMARCA,SAN IGNACIO,HUARANGO",-5.30173,-78.7224,1109,2000,EL LAUREL,comite de agua el laurel,250,50,NO,NO,NO,NO,NO,NO
Sistema de LA LAGUNA,142906,Perú,"CAJAMARCA,SAN IGNACIO,HUARANGO",-5.19275,-78.7987,1108,2011,LA LAGUNA,comite de agua la laguna,850,170,NO,NO,NO,NO,NO,NO
Sistema de VERDE QUIHUA,142907,Perú,"CAJAMARCA,SAN IGNACIO,HUARANGO",-5.18457,-78.7203,1284,2007,VERDE QUIHUA,comite de agua verde quihua,135,27,NO,NO,NO,NO,NO,NO
Sistema de TAMBORAPA PUEBLO,142911,Perú,"CAJAMARCA,SAN IGNACIO,TABACONAS",-5.31411,-79.2328,1240,2000,TAMBORAPA PUEBLO,tamorapa pueblo,1625,325,NO,NO,NO,NO,NO,NO
Sistema de LA BERMEJA,142912,Perú,"CAJAMARCA,SAN IGNACIO,TABACONAS",-5.39648,-79.16,1334,1996,LA BERMEJA,jass la bermeja,900,180,NO,NO,NO,NO,SI,SI
Sistema de MONTE DE LOS OLIVOS,142913,Perú,"CAJAMARCA,SAN IGNACIO,TABACONAS",-5.41904,-79.2269,1415,2000,MONTE DE LOS OLIVOS,JASS MONTE DE LOS OLIVOS,380,76,NO,NO,NO,NO,NO,NO
Sistema de LA PALMA,142916,Perú,"CAJAMARCA,SAN IGNACIO,TABACONAS",-5.35882,-79.1729,1516,2003,LA PALMA,JASS CASERIO LA PALMA,36,12,NO,NO,NO,NO,NO,NO
Sistema de PANCHIA ALTO,142918,Perú,"CAJAMARCA,SAN IGNACIO,TABACONAS",-5.35472,-79.1358,1700,1997,PANCHIA ALTO,jass panchia alto,115.71428571428571,27,NO,NO,NO,NO,NO,NO
Sistema de PANCHIA,142919,Perú,"CAJAMARCA,SAN IGNACIO,TABACONAS",-5.3464,-79.1144,1048,1997,PANCHIA,JASS PANCHIA,1015,203,NO,NO,NO,NO,NO,NO
Sistema de NARANJO,142921,Perú,"CAJAMARCA,SAN IGNACIO,TABACONAS",-5.39049,-79.1373,1243,1997,NARANJO,JASS NARANJO,215,43,NO,NO,NO,NO,NO,NO
Sistema de TABACONAS,142923,Perú,"CAJAMARCA,SAN IGNACIO,TABACONAS",-5.31645,-79.2823,1895,1990,TABACONAS,tabaconas,750,150,NO,NO,NO,NO,NO,NO
Sistema de HUALANGO PAMPA,143056,Perú,"CAJAMARCA,SANTA CRUZ,SANTA CRUZ",-6.66345,-78.9651,1788,2003,HUALANGO PAMPA,hualango pampa,155,31,NO,NO,NO,NO,NO,SI
Sistema de MAYOBAMBA,143068,Perú,"CAJAMARCA,SANTA CRUZ,SANTA CRUZ",-6.59149,-78.9266,1608,1998,MAYOBAMBA,mayobamba,175,35,NO,NO,NO,NO,NO,SI
Sistema de PLATANAR,143074,Perú,"CAJAMARCA,SANTA CRUZ,SANTA CRUZ",-6.58707,-78.9401,1552,2010,PLATANAR,platanar,90,18,NO,NO,NO,NO,NO,SI
Sistema de MOLINO VIEJO,143076,Perú,"CAJAMARCA,SANTA CRUZ,SANTA CRUZ",-6.59325,-78.9054,1696,2011,MOLINO VIEJO,molino viejo,175,35,NO,NO,NO,NO,NO,SI
Sistema de CHOSECANI,143116,Perú,"CUSCO,ACOMAYO,POMACANCHI",-13.9829,-71.5999,3730,1997,CHOSECANI,jass chosecani,375.55555555555554,130,NO,NO,NO,NO,NO,SI
Sistema de LLAULLICANCHA,143205,Perú,"CUSCO,ANTA,CHINCHAYPUJIO",-13.5544,-72.32,3866,2007,LLAULLICANCHA,jass llaullicancha,48,12,NO,NO,NO,NO,NO,NO
Sistema de SAUKI,143281,Perú,"CUSCO,CALCA,LARES",-13.1519,-72.0479,3118,2006,SAUKI,JUNTA ADMINISTRADORA DE SERVICIO DE SANEAMIENTO DE,208.27450980392157,47,NO,NO,NO,NO,NO,NO
Sistema de TTOCRA,143320,Perú,"CUSCO,CALCA,LARES",-12.993,-72.0217,3940,2005,TTOCRA,Municipalidad de LARES,24,9,NO,NO,NO,NO,NO,NO
Sistema de SAN ANTONIO 2,143356,Perú,"CUSCO,CALCA,YANATILE",-12.6976,-72.0466,1680,2000,SAN ANTONIO 2,jass san antonio,200,40,NO,NO,NO,NO,NO,NO
Sistema de CCORMA,147494,Perú,"CUSCO,CHUMBIVILCAS,SANTO TOMAS",-14.6372,-72.1642,4030,1999,CCORMA,CCORMA CCALITA,52,13,SI,NO,NO,NO,NO,NO
Sistema de PICUTANI,147499,Perú,"CUSCO,CHUMBIVILCAS,SANTO TOMAS",-14.5901,-72.206,4115,1984,PICUTANI,JASS PICUTANI,92,23,NO,NO,NO,NO,NO,NO
Sistema de VISTA ALEGRE,147503,Perú,"CUSCO,CHUMBIVILCAS,SANTO TOMAS",-14.5975,-72.1343,3960,1995,VISTA ALEGRE,vista alegre,250,50,SI,NO,NO,NO,NO,SI
Sistema de MELLOTOTORA,147507,Perú,"CUSCO,CHUMBIVILCAS,SANTO TOMAS",-14.4171,-72.0507,3719,1998,MELLOTOTORA,JASS MELLOTOTORA,235.91836734693877,68,SI,NO,NO,NO,NO,NO
Sistema de PUENTE CCOYO,147508,Perú,"CUSCO,CHUMBIVILCAS,SANTO TOMAS",-14.4773,-72.1079,3386,2007,PUENTE CCOYO,JASS puente ccoyo,132,33,SI,NO,NO,NO,NO,NO
Sistema de QQUENCO,147509,Perú,"CUSCO,CHUMBIVILCAS,SANTO TOMAS",-14.4436,-72.053,3686,2003,QQUENCO,JASS QUENCCO,400,300,SI,NO,NO,NO,NO,NO
Sistema de CHILLHUANI,147514,Perú,"CUSCO,CHUMBIVILCAS,SANTO TOMAS",-14.5621,-72.1475,3939,2001,CHILLHUANI,CHILLHUANI,44.54545454545455,35,SI,NO,NO,NO,NO,SI
Sistema de RINCONADA,147516,Perú,"CUSCO,CHUMBIVILCAS,SANTO TOMAS",-14.6947,-72.0527,3998,1994,RINCONADA,JASS  RINCONADA,92,23,SI,NO,NO,NO,NO,NO
Sistema de PAN DE AZUCAR,147696,Perú,"CUSCO,LA CONVENCION,ECHARATE",-12.7305,-72.5645,942,1998,PAN DE AZUCAR,jass pan de azucar,150,50,NO,NO,NO,NO,NO,NO
Sistema de PROGRESO,147703,Perú,"CUSCO,LA CONVENCION,ECHARATE",-12.6292,-72.9747,446,2001,PROGRESO,jass  progreso sector santa elena,350,40,NO,NO,NO,NO,NO,NO
Sistema de MIRAFLORES,147710,Perú,"CUSCO,LA CONVENCION,ECHARATE",-12.744,-72.5662,1064,2001,MIRAFLORES,jass miraflores,400,100,SI,NO,NO,NO,NO,NO
Sistema de CHILCACHACA,147725,Perú,"CUSCO,LA CONVENCION,HUAYOPATA",-13.0236,-72.4919,1886,2000,CHILCACHACA,jass chillcachaca,90,30,SI,NO,NO,NO,NO,NO
Sistema de KIMBIRI ALTA (ROCA),147761,Perú,"CUSCO,LA CONVENCION,KIMBIRI",-12.5974,-73.7511,755,1998,KIMBIRI ALTA (ROCA),Municipalidad de KIMBIRI,630,150,NO,NO,NO,NO,NO,SI
Sistema de PALESTINA ALTA,147762,Perú,"CUSCO,LA CONVENCION,KIMBIRI",-12.8524,-73.5716,690,2012,PALESTINA ALTA,JASS PALESTINA,220.83333333333334,53,NO,NO,NO,NO,NO,SI
Sistema de VILLA KINTIARINA,147763,Perú,"CUSCO,LA CONVENCION,KIMBIRI",-12.9063,-73.5176,706,2011,VILLA KINTIARINA,JASS VILLA KINTIARINA,297.9310344827586,60,NO,NO,NO,NO,SI,SI
Sistema de SEGUNDO LOTE,147764,Perú,"CUSCO,LA CONVENCION,KIMBIRI",-12.8295,-73.5627,1055,2013,SEGUNDO LOTE,jass segundo lote,200,65,NO,NO,NO,NO,SI,SI
Sistema de SAMANIATO,147765,Perú,"CUSCO,LA CONVENCION,KIMBIRI",-12.6485,-73.7102,672,1998,SAMANIATO,jass de samaniato,593.5135135135135,180,NO,NO,NO,NO,NO,NO
Sistema de MANITINKIARI,147768,Perú,"CUSCO,LA CONVENCION,KIMBIRI",-12.8587,-73.5689,748,2014,MANITINKIARI,JASS MANITINKIARI,216,54,NO,NO,NO,NO,NO,NO
Sistema de VISTA ALEGRE,147769,Perú,"CUSCO,LA CONVENCION,KIMBIRI",-12.7126,-73.6346,831,2001,VISTA ALEGRE,jass de vista alegre,225,45,NO,NO,NO,NO,NO,NO
Sistema de PUEBLO LIBRE ALTO,147780,Perú,"CUSCO,LA CONVENCION,KIMBIRI",-12.8713,-73.5435,567,2010,PUEBLO LIBRE ALTO,pueblo libre alto jass,82.85714285714286,40,NO,NO,NO,NO,NO,NO
Sistema de VISTA ALEGRE ALTA,147781,Perú,"CUSCO,LA CONVENCION,KIMBIRI",-12.6145,-73.7329,1090,2007,VISTA ALEGRE ALTA,vista alegre alata jass,300,60,NO,NO,NO,NO,NO,NO
Sistema de CENTRO BELEN,147786,Perú,"CUSCO,LA CONVENCION,KIMBIRI",-12.7213,-73.6214,1330,2010,CENTRO BELEN,JASS BELEN,40,10,NO,NO,NO,NO,NO,NO
Sistema de SAMPANTUARI NATIVO,147787,Perú,"CUSCO,LA CONVENCION,KIMBIRI",-12.5762,-73.7919,793,2010,SAMPANTUARI NATIVO,JASS DE SAMPANTUARI NATIVOS,208,40,NO,NO,NO,NO,NO,NO
Sistema de VILLA VIRGEN,147801,Perú,"CUSCO,LA CONVENCION,VILCABAMBA",-12.9989,-73.5123,730,2000,VILLA VIRGEN,JASS VILLA VIRGEN,1045,209,NO,NO,NO,NO,NO,NO
Sistema de SELVA ALEGRE,147804,Perú,"CUSCO,LA CONVENCION,VILCABAMBA",-12.6911,-73.09,667,2010,SELVA ALEGRE,JASS SELVA ALEGRE,272,68,NO,NO,NO,NO,NO,NO
Sistema de YUVENI,147805,Perú,"CUSCO,LA CONVENCION,VILCABAMBA",-12.7554,-73.1346,905,2009,YUVENI,JASS YUVENI,576,144,NO,NO,NO,NO,NO,NO
Sistema de MANTARO,147837,Perú,"CUSCO,LA CONVENCION,PICHARI",-12.3236,-73.9403,550,2000,NA,NA,NA,NA,NA,NA,NA,NA,NO,NO
Sistema de TERESA,147838,Perú,"CUSCO,LA CONVENCION,PICHARI",-12.3387,-73.9229,510,2000,TERESA,Municipalidad de PICHARI,844.7852760736197,150,NO,NO,NO,NO,NO,NO
Sistema de NATIVIDAD,147839,Perú,"CUSCO,LA CONVENCION,PICHARI",-12.2575,-73.9573,552,2013,NATIVIDAD,COMIT,1251.851851851852,260,NO,NO,NO,NO,NO,NO
Sistema de ALTO PARIJARI,147843,Perú,"CUSCO,LA CONVENCION,PICHARI",-12.3404,-73.9035,576,2000,ALTO PARIJARI,jass alto parijari,58.604651162790695,20,NO,NO,NO,NO,NO,SI
Sistema de SANTOSHARI,147845,Perú,"CUSCO,LA CONVENCION,PICHARI",-12.3144,-73.9422,555,2004,SANTOSHARI,jass santoshari,135,30,NO,NO,NO,NO,NO,SI
Sistema de MIMIRINI PAISANOS,147846,Perú,"CUSCO,LA CONVENCION,PICHARI",-12.2928,-73.9558,535,2000,MIMIRINI PAISANOS,jass mimirini paisanos,55.714285714285715,13,NO,NO,NO,NO,NO,NO
Sistema de TUPAC AMARU II,147848,Perú,"CUSCO,LA CONVENCION,PICHARI",-12.4594,-73.8363,826,2005,TUPAC AMARU II,jass tupac amaru,150,45,NO,NO,NO,NO,NO,NO
Sistema de MIRAFLORES,147851,Perú,"CUSCO,LA CONVENCION,PICHARI",-12.2568,-73.9378,662,2000,MIRAFLORES,jass miraflores,111.62790697674419,40,NO,NO,NO,NO,NO,SI
Sistema de KEPASHIARI,147852,Perú,"CUSCO,LA CONVENCION,PICHARI",-12.2436,-73.9504,615,2004,KEPASHIARI,jass,48,24,NO,NO,NO,NO,NO,SI
Sistema de SANTA INES,147853,Perú,"CUSCO,LA CONVENCION,PICHARI",-12.2989,-73.9333,712,1999,SANTA INES,JASS SANTA INES,600,140,NO,NO,NO,NO,NO,NO
Sistema de PUERTO COCOS,147855,Perú,"CUSCO,LA CONVENCION,PICHARI",-12.2834,-73.9657,495,2000,PUERTO COCOS,jass puerto cocos,18.88888888888889,15,NO,NO,NO,NO,NO,NO
Sistema de TARANCATO,147858,Perú,"CUSCO,LA CONVENCION,PICHARI",-12.5357,-73.7889,810,2009,TARANCATO,jass tarancato,409.09090909090907,100,NO,NO,NO,NO,NO,SI
Sistema de UNION TARANCATO ALTO,147859,Perú,"CUSCO,LA CONVENCION,PICHARI",-12.5108,-73.7801,1248,2013,UNION TARANCATO ALTO,jass tarancato alto,53.33333333333333,10,NO,NO,NO,NO,NO,NO
Sistema de SANKIROSHI,147860,Perú,"CUSCO,LA CONVENCION,PICHARI",-12.4776,-73.7866,506,2006,SANKIROSHI,jass sankiroshi,133,42,NO,NO,NO,NO,NO,NO
Sistema de JATUN RUMI,147872,Perú,"CUSCO,LA CONVENCION,PICHARI",-12.5122,-73.8525,565,1999,JATUN RUMI,jass jatun rumi,2025,405,NO,NO,NO,NO,NO,NO
Sistema de LLAYCHU,147951,Perú,"CUSCO,PAUCARTAMBO,PAUCARTAMBO",-13.3001,-71.5985,2915,2011,LLAYCHU,JASS LLAYCHU,376,94,NO,NO,NO,NO,NO,NO
Sistema de CHONTACHACA,148042,Perú,"CUSCO,PAUCARTAMBO,KOSÑIPATA",-13.0262,-71.47,898,1985,CHONTACHACA,JASS CHONTACHACA,125,25,NO,NO,NO,NO,NO,NO
Sistema de PATRIAS,148044,Perú,"CUSCO,PAUCARTAMBO,KOSÑIPATA",-12.9486,-71.4225,668,2013,PATRIAS,Prestador de PATRIAS,1500,420,NO,NO,NO,NO,NO,NO
Sistema de ATALAYA,148045,Perú,"CUSCO,PAUCARTAMBO,KOSÑIPATA",-12.8893,-71.3587,480,2005,ATALAYA,Prestador de ATALAYA,1500,477,NO,NO,NO,NO,NO,NO
Sistema de CASA HACIENDA,148153,Perú,"CUSCO,QUISPICANCHI,LUCRE",-13.5925,-71.7208,3145,2006,CASA HACIENDA,Municipalidad de LUCRE,11,2,NO,NO,NO,NO,NO,NO
Sistema de HACIENDA PAMPA,148156,Perú,"CUSCO,QUISPICANCHI,LUCRE",-13.6371,-71.7237,3001,1999,HACIENDA PAMPA,Municipalidad de LUCRE,24,6,NO,NO,NO,NO,NO,NO
Sistema de MUYNA,148157,Perú,"CUSCO,QUISPICANCHI,LUCRE",-13.634,-71.7309,3103,1999,MUYNA,Municipalidad de LUCRE,1272.0496894409937,320,NO,NO,NO,NO,NO,NO
Sistema de LUCRE,148158,Perú,"CUSCO,QUISPICANCHI,LUCRE",-13.6337,-71.7365,3129,1999,LUCRE,Municipalidad de LUCRE,1900,510,NO,NO,NO,NO,NO,NO
Sistema de CHIMPACOCHA,148160,Perú,"CUSCO,QUISPICANCHI,MARCAPATA",-13.5039,-70.8907,2389,2012,CHIMPACOCHA,jass chimpacocha,84,21,NO,NO,NO,NO,NO,NO
Sistema de CHILECHILE,148195,Perú,"CUSCO,QUISPICANCHI,MARCAPATA",-13.5506,-70.8879,2028,2009,CHILECHILE,JASS CHILE CHILE,40,10,NO,NO,NO,NO,NO,NO
Sistema de PATAPACCHANTA,148213,Perú,"CUSCO,QUISPICANCHI,OCONGATE",-13.7182,-71.2547,4031,2000,PATAPACCHANTA,jass pacchanta alta,52,13,NO,NO,NO,NO,SI,SI
Sistema de PANTIPATA,148234,Perú,"CUSCO,QUISPICANCHI,OCONGATE",-13.6845,-71.2788,4088,2000,PANTIPATA,JASS PUKARUMI,420,85,NO,NO,NO,NO,NO,NO
Sistema de RUMICHACA BAJA,148318,Perú,"CUSCO,URUBAMBA,URUBAMBA",-13.2966,-72.1385,2885,1997,RUMICHACA BAJA,jass rumichaca baja,1050,270,NO,NO,NO,NO,NO,NO
Sistema de YANAHUARA,148324,Perú,"CUSCO,URUBAMBA,URUBAMBA",-13.2785,-72.1747,2917,1992,YANAHUARA,jaaps yanahuara,1320,330,NO,NO,NO,NO,NO,NO
Sistema de MARAS,148364,Perú,"CUSCO,URUBAMBA,MARAS",-13.3326,-72.1563,3400,1969,MARAS,Municipalidad de MARAS,1712.8125,435,NO,NO,NO,NO,NO,NO
Sistema de PAUCARBAMBA,148373,Perú,"CUSCO,URUBAMBA,MARAS",-13.2848,-72.1894,2842,1990,PAUCARBAMBA,jass paucarbamba,216,54,NO,NO,NO,NO,NO,SI
Sistema de YUCAY,148396,Perú,"CUSCO,URUBAMBA,YUCAY",-13.3185,-72.0873,2892,1969,YUCAY,Municipalidad de YUCAY,1695.0340798442064,1024,NO,NO,NO,NO,NO,SI
Sistema de PATALLAQTA,148498,Perú,"HUANCAVELICA,HUANCAVELICA,YAULI",-12.9065,-74.8248,3737,1996,PATALLAQTA,jass patallaqta,240,60,NO,NO,NO,NO,NO,NO
Sistema de TUPAC AMARU,148618,Perú,"HUANCAVELICA,ANGARAES,LIRCAY",-13.0853,-74.662,3688,2000,TUPAC AMARU,Prestador de TUPAC AMARU,72.5,29,NO,NO,NO,NO,NO,NO
Sistema de CHAYNABAMBA,148671,Perú,"HUANCAVELICA,ANGARAES,CONGALLA",-12.9503,-74.5594,3671,2000,CHAYNABAMBA,JASS - CHAYNABAMBA,350,165,NO,NO,NO,NO,NO,NO
Sistema de PACOCOCHA,148688,Perú,"HUANCAVELICA,CASTROVIRREYNA,CASTROVIRREYNA",-13.2243,-75.2678,4468,1997,PACOCOCHA,PACOCOHA,100,40,NO,NO,NO,NO,SI,NO
Sistema de SAN MATEO,148700,Perú,"HUANCAVELICA,CHURCAMPA,CHURCAMPA",-12.7564,-74.4093,3088,1998,SAN MATEO,jass san mateo,180,63,NO,NO,NO,NO,SI,SI
Sistema de CCONOCC,148701,Perú,"HUANCAVELICA,CHURCAMPA,CHURCAMPA",-12.727,-74.4114,3512,2013,CCONOCC,jasss  cconocc,238,60,NO,NO,NO,NO,SI,SI
Sistema de CCARAPATA,148702,Perú,"HUANCAVELICA,CHURCAMPA,CHURCAMPA",-12.7138,-74.4142,3550,2013,CCARAPATA,jass ccarapata,32,12,NO,NO,NO,NO,NO,NO
Sistema de CCOTCCOY,148703,Perú,"HUANCAVELICA,CHURCAMPA,CHURCAMPA",-12.7208,-74.3959,3291,2014,CCOTCCOY,jass ccotccoy,190,65,NO,NO,NO,NO,NO,NO
Sistema de CHAMANA,148707,Perú,"HUANCAVELICA,CHURCAMPA,CHURCAMPA",-12.6842,-74.3594,3249,2012,CHAMANA,jas  chanama,40,10,NO,NO,NO,NO,NO,NO
Sistema de MILLPO,148709,Perú,"HUANCAVELICA,CHURCAMPA,CHURCAMPA",-12.6728,-74.377,3435,2010,MILLPO,jass millpo,50,19,NO,NO,NO,NO,NO,NO
Sistema de CHURCAMPA,148710,Perú,"HUANCAVELICA,CHURCAMPA,CHURCAMPA",-12.7393,-74.3874,3302,1985,CHURCAMPA,Municipalidad de CHURCAMPA,1816.326530612245,890,NO,NO,NO,NO,SI,SI
Sistema de YAURECCAN,148737,Perú,"HUANCAVELICA,CHURCAMPA,LOCROJA",-12.7135,-74.4402,3682,2010,YAURECCAN,Prestador de YAURECCAN,860,215,NO,NO,NO,NO,NO,NO
Sistema de ACAO,148812,Perú,"HUANCAVELICA,TAYACAJA,DANIEL HERNANDEZ",-12.3096,-74.8542,3207,2002,ACAO,COMITE DE AGUA POTABLE,135,36,NO,NO,NO,NO,NO,NO
Sistema de,148813,Perú,"HUANCAVELICA,TAYACAJA,DANIEL HERNANDEZ",-12.3147,-74.8624,3102,2002,NA,NA,NA,NA,NA,NA,NA,NA,NO,NO
Sistema de CHINCHIPAMPA,148819,Perú,"HUANCAVELICA,TAYACAJA,DANIEL HERNANDEZ",-12.3147,-74.8633,3436,1991,CHINCHIPAMPA,Prestador de CHINCHIPAMPA,174.04761904761904,34,NO,NO,NO,NO,NO,NO
Sistema de PICHUS,148847,Perú,"HUANCAVELICA,TAYACAJA,HUARIBAMBA",-12.2377,-74.9386,3296,2000,PICHUS,JASS PICHOS,1520,475,NO,NO,NO,NO,NO,NO
Sistema de PUCARAPATA,148852,Perú,"HUANCAVELICA,TAYACAJA,HUARIBAMBA",-12.1815,-74.9849,3605,2009,PUCARAPATA,comunidad de pucarapaata,100,20,NO,NO,NO,NO,NO,NO
Sistema de SAN CRISTOBAL DE ANTIPHUASIN (ANTIPAHUA,148855,Perú,"HUANCAVELICA,TAYACAJA,HUARIBAMBA",-12.204,-74.956,3242,2000,SAN CRISTOBAL DE ANTIPHUASIN (ANTIPAHUASIN),ASOCIACION  ANTIPAHUASIN,45,19,NO,NO,NO,NO,NO,NO
Sistema de CANCEJOS,148911,Perú,"HUANUCO,HUANUCO,CHINCHAO",-9.73123,-76.0894,2626,2008,CANCEJOS,jass - cancejos,180,36,NO,NO,NO,NO,NO,NO
Sistema de SAN SEBASTIAN DE QUERA,148998,Perú,"HUANUCO,HUANUCO,SANTA MARIA DEL VALLE",-9.85182,-76.2744,2068,2014,SAN SEBASTIAN DE QUERA,JASS,481.9162995594713,221,NO,NO,NO,NO,NO,NO
Sistema de GASGO,149007,Perú,"HUANUCO,HUANUCO,YACUS",-9.96991,-76.5243,3715,1996,GASGO,jass comite de agua,160,40,NO,NO,NO,NO,SI,SI
Sistema de PILCOCANCHA,149028,Perú,"HUANUCO,AMBO,CAYNA",-10.224,-76.3229,3410,2000,PILCOCANCHA,jass pillcocancha,269,67,NO,NO,NO,NO,NO,NO
Sistema de COLPAS,149029,Perú,"HUANUCO,AMBO,COLPAS",-10.2681,-76.4154,2770,1991,COLPAS,Municipalidad de COLPAS,319.8367346938776,48,NO,NO,NO,NO,NO,NO
Sistema de TICOPATA (ANDAMAYO),149040,Perú,"HUANUCO,AMBO,SAN FRANCISCO",-10.3921,-76.309,3560,1999,TICOPATA (ANDAMAYO),Prestador de TICOPATA (ANDAMAYO),15,4,NO,NO,NO,NO,NO,NO
Sistema de PURA,149098,Perú,"HUANUCO,DOS DE MAYO,MARIAS",-9.58219,-76.4188,2801,2006,PURA,guenayhuilca,100,60,NO,NO,NO,NO,NO,NO
Sistema de MARIAS,149100,Perú,"HUANUCO,DOS DE MAYO,MARIAS",-9.60712,-76.7065,3499,1990,MARIAS,Municipalidad de MARIAS,765,255,NO,NO,NO,NO,NO,SI
Sistema de PARASH PATA,149118,Perú,"HUANUCO,DOS DE MAYO,PACHAS",-9.69583,-76.7802,3638,2004,PARASH PATA,Prestador de PARASH PATA,39.55555555555556,20,NO,NO,NO,NO,NO,NO
Sistema de LLATA,149198,Perú,"HUANUCO,HUAMALIES,LLATA",-9.54997,-76.8155,3448,1969,LLATA,Municipalidad de LLATA,1904.7619047619048,800,NO,NO,NO,NO,NO,NO
Sistema de MARAVILLAS,149253,Perú,"HUANUCO,HUAMALIES,MONZON",-9.29436,-76.4618,1108,1998,MARAVILLAS,Municipalidad de MONZON,425,85,NO,NO,NO,NO,NO,NO
Sistema de CHAUPIYACU,149254,Perú,"HUANUCO,HUAMALIES,MONZON",-9.2931,-76.3739,960,2000,CHAUPIYACU,jass- chaupiyacu,135,30,NO,NO,NO,NO,NO,NO
Sistema de CAUNARAPA (LA LIBERTAD),149255,Perú,"HUANUCO,HUAMALIES,MONZON",-9.29117,-76.4421,1031,2000,CAUNARAPA (LA LIBERTAD),jass caunarapa,385,77,NO,NO,NO,NO,NO,NO
Sistema de PALO ACERO,149256,Perú,"HUANUCO,HUAMALIES,MONZON",-9.23652,-76.0887,707,1969,PALO ACERO,jass- palo de acero,646.6370370370371,256,NO,NO,NO,NO,NO,NO
Sistema de SAN JUAN DE CAPI,149257,Perú,"HUANUCO,HUAMALIES,MONZON",-9.28315,-76.4245,967,2000,SAN JUAN DE CAPI,jass san juan de capi,135.33333333333334,29,NO,NO,NO,NO,NO,NO
Sistema de SAN BENITO,149258,Perú,"HUANUCO,HUAMALIES,MONZON",-9.27798,-76.4017,965,2000,SAN BENITO,JASS-SAN BENITO,373.33333333333337,80,NO,NO,NO,NO,NO,NO
Sistema de PISTA LOLI,149259,Perú,"HUANUCO,HUAMALIES,MONZON",-9.27799,-76.3854,937,2000,PISTA LOLI,jass - pista loli,63,18,NO,NO,NO,NO,NO,NO
Sistema de CASHAPAMPA,149261,Perú,"HUANUCO,HUAMALIES,MONZON",-9.23314,-76.3264,840,1985,CASHAPAMPA,jass-cashapampa,948.9795918367347,186,NO,NO,NO,NO,NO,NO
Sistema de NUEVA SELVA BAJA,149262,Perú,"HUANUCO,HUAMALIES,MONZON",-9.23089,-76.3021,810,1997,NUEVA SELVA BAJA,jass-nueva selva baja,102.14285714285714,40,NO,NO,NO,NO,NO,NO
Sistema de SACHAVACA,149263,Perú,"HUANUCO,HUAMALIES,MONZON",-9.21067,-76.1397,745,2013,SACHAVACA,Municipalidad de MONZON,1348.4974093264248,286,NO,NO,NO,NO,NO,NO
Sistema de CAMOTE,149264,Perú,"HUANUCO,HUAMALIES,MONZON",-9.19515,-76.2284,740,2012,CAMOTE,jass-camote,175,35,NO,NO,NO,NO,NO,NO
Sistema de SHIANCA,149265,Perú,"HUANUCO,HUAMALIES,MONZON",-9.25438,-76.2737,1026,2011,SHIANCA,jass-shianca,87.27272727272728,30,NO,NO,NO,NO,NO,NO
Sistema de TAZO GRANDE,149266,Perú,"HUANUCO,HUAMALIES,MONZON",-9.21561,-76.2722,790,2014,TAZO GRANDE,Municipalidad de MONZON,700,200,NO,NO,NO,NO,NO,NO
Sistema de SHITARI,149267,Perú,"HUANUCO,HUAMALIES,MONZON",-9.25083,-76.0831,709,2009,SHITARI,JASS-SHITARI,140,28,NO,NO,NO,NO,NO,NO
Sistema de PALO WIMBA,149268,Perú,"HUANUCO,HUAMALIES,MONZON",-9.22522,-76.1075,726,1984,PALO WIMBA,JASS-PALO WIMBA,250,50,NO,NO,NO,NO,NO,NO
Sistema de GRANJA,149269,Perú,"HUANUCO,HUAMALIES,MONZON",-9.21187,-76.2406,756,2000,GRANJA,jass-granja,180.64516129032256,42,NO,NO,NO,NO,NO,NO
Sistema de MANCHURIA,149270,Perú,"HUANUCO,HUAMALIES,MONZON",-9.20899,-76.1648,734,2013,MANCHURIA,Municipalidad de MONZON,552.825,195,NO,NO,NO,NO,NO,NO
Sistema de YANACANDADO,149272,Perú,"HUANUCO,HUAMALIES,MONZON",-9.26437,-76.3151,1061,2000,YANACANDADO,Prestador de YANACANDADO,126,14,NO,NO,NO,NO,NO,NO
Sistema de AGUA BLANCA,149273,Perú,"HUANUCO,HUAMALIES,MONZON",-9.27076,-76.0828,707,1999,AGUA BLANCA,jass-agua blanca,500,100,NO,NO,NO,NO,NO,NO
Sistema de SANTA ROSA DE CHACRITA,149275,Perú,"HUANUCO,HUAMALIES,MONZON",-9.23182,-76.218,860,2009,SANTA ROSA DE CHACRITA,jass-santa rosa de chacrita,76,19,NO,NO,NO,NO,NO,NO
Sistema de SAN CRISTOBAL,149276,Perú,"HUANUCO,HUAMALIES,MONZON",-9.2224,-76.3346,1102,1998,SAN CRISTOBAL,jass- san cristobal,163.33333333333334,30,NO,NO,NO,NO,NO,NO
Sistema de MONZON,149277,Perú,"HUANUCO,HUAMALIES,MONZON",-9.27965,-76.3964,985,1999,MONZON,Municipalidad de MONZON,1560.234375,315,NO,NO,NO,NO,NO,NO
Sistema de MONTE GRANDE,149278,Perú,"HUANUCO,HUAMALIES,MONZON",-9.2564,-76.3425,870,1998,MONTE GRANDE,jass- monte grande,125,25,NO,NO,NO,NO,NO,NO
Sistema de BUENOS AIRES,149287,Perú,"HUANUCO,HUAMALIES,PUÑOS",-9.5149,-76.8632,3680,2013,BUENOS AIRES,jass buenos aires,195.09333333333333,62,NO,NO,NO,NO,NO,NO
Sistema de PU,149289,Perú,"HUANUCO,HUAMALIES,PUÑOS",-9.50049,-76.8839,3700,2000,NA,NA,NA,NA,NA,NA,NA,NA,NO,NO
Sistema de TANTAMAYO,149299,Perú,"HUANUCO,HUAMALIES,TANTAMAYO",-9.39239,-76.7201,3515,2006,TANTAMAYO,Municipalidad de TANTAMAYO,900,200,NO,NO,NO,NO,NO,NO
Sistema de SHUCSHA,149303,Perú,"HUANUCO,HUAMALIES,TANTAMAYO",-9.38474,-76.7004,3769,2010,SHUCSHA,comite de agua de shucsha,43.75,7,NO,NO,NO,NO,NO,NO
Sistema de SAN PEDRO DE PACCHAI,149308,Perú,"HUANUCO,LEONCIO PRADO,MARIANO DAMASO BERAUN",-9.3946,-75.9424,1089,2000,SAN PEDRO DE PACCHAI,Prestador de SAN PEDRO DE PACCHAI,13.953488372093023,8,NO,NO,NO,NO,NO,NO
Sistema de BEJUCAL,149311,Perú,"HUANUCO,LEONCIO PRADO,MARIANO DAMASO BERAUN",-9.37155,-75.9323,1098,2000,BEJUCAL,BEJUCAL,303.3333333333333,70,NO,NO,NO,NO,NO,NO
Sistema de CORAZON DE JESUS,149312,Perú,"HUANUCO,LEONCIO PRADO,MARIANO DAMASO BERAUN",-9.40231,-75.919,1529,2012,CORAZON DE JESUS,CORAZON DE JESUS,101.5,29,NO,NO,NO,NO,NO,NO
Sistema de TAMBILLO GRANDE,149313,Perú,"HUANUCO,LEONCIO PRADO,MARIANO DAMASO BERAUN",-9.40861,-75.9732,713,1970,TAMBILLO GRANDE,tambillo grande,558.9641434262949,230,NO,NO,NO,NO,NO,SI
Sistema de CHONTA PLAYA,149314,Perú,"HUANUCO,LEONCIO PRADO,MARIANO DAMASO BERAUN",-9.43562,-75.9676,734,1995,CHONTA PLAYA,CHONTAPLAYA,0,0,NO,NO,NO,NO,NO,NO
Sistema de TAMBILLO CHICO,149315,Perú,"HUANUCO,LEONCIO PRADO,MARIANO DAMASO BERAUN",-9.42228,-75.9664,720,1994,TAMBILLO CHICO,TAMBILLO CHICO,155.67567567567568,64,NO,NO,NO,NO,NO,NO
Sistema de CHUNATAHUA,149318,Perú,"HUANUCO,LEONCIO PRADO,MARIANO DAMASO BERAUN",-9.42242,-75.8889,775,2000,CHUNATAHUA,chunatahua,234.11111111111111,42,NO,NO,NO,NO,SI,SI
Sistema de INTI ALTO PUEBLO LIBRE (PUEBLO LIBRE IN,149319,Perú,"HUANUCO,LEONCIO PRADO,MARIANO DAMASO BERAUN",-9.32005,-76.0668,862,2008,INTI ALTO PUEBLO LIBRE (PUEBLO LIBRE INTI ALTO),COMIT,51,17,NO,NO,NO,NO,NO,NO
Sistema de LOTA,149320,Perú,"HUANUCO,LEONCIO PRADO,MARIANO DAMASO BERAUN",-9.30286,-76.0755,718,2014,LOTA,lota,60.9375,25,NO,NO,NO,NO,NO,NO
Sistema de NUEVA AMERICA,149321,Perú,"HUANUCO,LEONCIO PRADO,MARIANO DAMASO BERAUN",-9.34767,-76.1231,836,2014,NUEVA AMERICA,Prestador de NUEVA AMERICA,240,48,NO,NO,NO,NO,NO,NO
Sistema de BELLA,149322,Perú,"HUANUCO,LEONCIO PRADO,MARIANO DAMASO BERAUN",-9.32294,-76.0349,697,2000,BELLA,jass bella,530,106,NO,NO,NO,NO,NO,NO
Sistema de LAS PALMAS,149324,Perú,"HUANUCO,LEONCIO PRADO,MARIANO DAMASO BERAUN",-9.41643,-75.9663,752,1995,LAS PALMAS,Municipalidad de MARIANO DAMASO BERAUN,711,237,NO,NO,NO,NO,NO,NO
Sistema de BELLA ALTA,149325,Perú,"HUANUCO,LEONCIO PRADO,MARIANO DAMASO BERAUN",-9.34609,-76.0502,779,2010,BELLA ALTA,Prestador de BELLA ALTA,200,40,NO,NO,NO,NO,NO,NO
Sistema de CESAR VALLEJO,149326,Perú,"HUANUCO,LEONCIO PRADO,MARIANO DAMASO BERAUN",-9.29696,-75.9199,895,2006,CESAR VALLEJO,cesar vallejo,15,15,NO,NO,NO,NO,NO,NO
Sistema de INTI,149327,Perú,"HUANUCO,LEONCIO PRADO,MARIANO DAMASO BERAUN",-9.29932,-76.0591,730,1994,INTI,jass inti,650,150,NO,NO,NO,NO,NO,NO
Sistema de QUEZADA (QUESADA),149328,Perú,"HUANUCO,LEONCIO PRADO,MARIANO DAMASO BERAUN",-9.39449,-75.9727,698,2008,QUEZADA (QUESADA),LAS PALMERAS,458.45454545454544,82,NO,NO,NO,NO,NO,NO
Sistema de LA PERLA,149329,Perú,"HUANUCO,LEONCIO PRADO,MARIANO DAMASO BERAUN",-9.35997,-75.9755,691,2008,LA PERLA,puente perez,280,70,NO,NO,NO,NO,NO,NO
Sistema de CUEVA LAS PAVAS,149330,Perú,"HUANUCO,LEONCIO PRADO,MARIANO DAMASO BERAUN",-9.36084,-75.9798,691,1980,CUEVA LAS PAVAS,JASS CUEVA DE LAS PAVAS,193.6578947368421,33,NO,NO,NO,NO,NO,NO
Sistema de ALTO MARA,149334,Perú,"HUANUCO,MARAÑON,HUACRACHUCO",-8.6619,-77.1041,3637,1994,ALTO MARA,jass alto mara,240,48,NO,NO,NO,NO,NO,NO
Sistema de SAN ANDRES DE TUPICOCHA,153364,Perú,"LIMA,HUAROCHIRI,SAN ANDRES DE TUPICOCHA",-12.0019,-76.4746,3299,2005,SAN ANDRES DE TUPICOCHA,jass,670.81,259,NO,NO,NO,NO,NO,NO
Sistema de ACOCOTO,153398,Perú,"LIMA,HUAURA,AMBAR",-10.8462,-77.3076,1226,2014,ACOCOTO,JUNTA DIRECTIVA,90,18,NO,NO,NO,NO,NO,NO
Sistema de JALCAN,153400,Perú,"LIMA,HUAURA,AMBAR",-10.7458,-77.2204,2545,2007,JALCAN,Municipalidad de AMBAR,130.66666666666669,28,NO,NO,NO,NO,NO,NO
Sistema de TAMBON,153402,Perú,"LIMA,HUAURA,AMBAR",-10.7248,-77.1726,3332,2014,TAMBON,Municipalidad de AMBAR,90,18,NO,NO,NO,NO,NO,NO
Sistema de LANCHA,153403,Perú,"LIMA,HUAURA,AMBAR",-10.8752,-77.2187,2357,2013,LANCHA,Prestador de LANCHA,150,30,NO,NO,NO,NO,NO,NO
Sistema de TAULE,153406,Perú,"LIMA,HUAURA,AMBAR",-10.8737,-77.1921,2962,2012,TAULE,DELEGACION DEL AGUA,115,23,NO,NO,NO,NO,NO,NO
Sistema de ARINCHAY,153407,Perú,"LIMA,HUAURA,AMBAR",-10.7286,-77.192,3326,2011,ARINCHAY,organizacion del ccpp,100,20,NO,NO,NO,NO,NO,NO
Sistema de DESAGRAVIO,153424,Perú,"LIMA,HUAURA,HUAURA",-11.059,-77.5626,114,2013,DESAGRAVIO,desagravio,250,50,NO,NO,NO,NO,NO,NO
Sistema de SAN ISIDRO,153429,Perú,"LIMA,HUAURA,HUAURA",-11.1035,-77.3755,55,2013,SAN ISIDRO,centro poblado san isisdro,115,23,NO,NO,NO,NO,NO,NO
Sistema de VEINTIOCHO DE JULIO,153432,Perú,"LIMA,HUAURA,HUAURA",-11.0243,-77.4788,73,1995,VEINTIOCHO DE JULIO,Municipalidad de HUAURA,208,52,NO,NO,NO,NO,NO,NO
Sistema de SAN ANDRES DE HUACAR (SAN JUAN DE HUACA,153459,Perú,"LIMA,HUAURA,PACCHO",-10.9582,-76.9536,3079,1994,SAN ANDRES DE HUACAR (SAN JUAN DE HUACAR),Prestador de SAN ANDRES DE HUACAR (SAN JUAN DE HUA,909.0909090909091,200,NO,NO,NO,NO,NO,NO
Sistema de TIWINZA,153469,Perú,"LIMA,HUAURA,SAYAN",-11.2675,-77.3369,460,2014,TIWINZA,usuarios del ccpp,250,50,NO,NO,NO,NO,NO,NO
Sistema de DON ALBERTO (CASA BLANCA),153470,Perú,"LIMA,HUAURA,SAYAN",-11.257,-77.3379,473,2014,DON ALBERTO (CASA BLANCA),comite casa blanca,208.33333333333334,50,NO,NO,NO,NO,NO,NO
Sistema de SAN MARTIN DE PORRES,153480,Perú,"LIMA,HUAURA,SAYAN",-11.1329,-77.2912,530,2014,SAN MARTIN DE PORRES,junta directiva,200,60,NO,NO,NO,NO,NO,NO
Sistema de LUVIO,153481,Perú,"LIMA,HUAURA,SAYAN",-11.2276,-77.3647,433,2009,LUVIO,CCPP LUVIO,300,60,NO,NO,NO,NO,NO,NO
Sistema de LA MERCED,153482,Perú,"LIMA,HUAURA,SAYAN",-11.2193,-77.3112,530,2013,LA MERCED,JASS,755.5555555555555,400,NO,NO,NO,NO,NO,NO
Sistema de CA,153485,Perú,"LIMA,HUAURA,SAYAN",-11.1394,-77.2437,652,2011,NA,NA,NA,NA,NA,NA,NA,NA,NO,NO
Sistema de SAN MIGUEL,153486,Perú,"LIMA,HUAURA,SAYAN",-11.2086,-77.4091,475,1996,SAN MIGUEL,jass,112.5,30,NO,NO,NO,NO,NO,NO
Sistema de EL ROSARIO,153488,Perú,"LIMA,HUAURA,SAYAN",-11.2429,-77.4229,379,2011,EL ROSARIO,el rosario,350,86,NO,NO,NO,NO,NO,NO
Sistema de SAN ROBERTO,153489,Perú,"LIMA,HUAURA,SAYAN",-11.206,-77.3708,405,2011,SAN ROBERTO,Prestador de SAN ROBERTO,15,6,NO,NO,NO,NO,NO,NO
Sistema de CHAMBARA ALTA,153490,Perú,"LIMA,HUAURA,SAYAN",-11.1091,-77.3302,462,2011,CHAMBARA ALTA,chambara,300,60,NO,NO,NO,NO,NO,NO
Sistema de VISTA ALEGRE,153493,Perú,"LIMA,HUAURA,SAYAN",-11.1445,-77.1887,714,2014,VISTA ALEGRE,pueblo joven vista alegre,300,60,NO,NO,NO,NO,NO,NO
Sistema de FUNDO MONSERRAT,153494,Perú,"LIMA,HUAURA,SAYAN",-11.2092,-77.3142,544,2000,FUNDO MONSERRAT,Prestador de FUNDO MONSERRAT,60,7,NO,NO,NO,NO,NO,NO
Sistema de DIECISIETE DE ENERO,153495,Perú,"LIMA,HUAURA,SAYAN",-11.1546,-77.2411,610,2008,DIECISIETE DE ENERO,17 de enero,1200,300,NO,NO,NO,NO,NO,NO
Sistema de SANTA ELVIRA,153496,Perú,"LIMA,HUAURA,SAYAN",-11.1063,-77.3143,485,2000,SANTA ELVIRA,Municipalidad de SAYAN,450,120,NO,NO,NO,NO,NO,NO
Sistema de SANTA VICTORIA,153497,Perú,"LIMA,HUAURA,SAYAN",-11.219,-77.3748,390,2012,SANTA VICTORIA,Prestador de SANTA VICTORIA,25,10,NO,NO,NO,NO,NO,NO
Sistema de LA VICTORIA,153498,Perú,"LIMA,HUAURA,SAYAN",-11.2557,-77.3575,423,2011,LA VICTORIA,Municipalidad de SAYAN,60,15,NO,NO,NO,NO,NO,NO
Sistema de MANCO CAPAC (EL CARMEN),153499,Perú,"LIMA,HUAURA,SAYAN",-11.107,-77.3499,411,2008,MANCO CAPAC (EL CARMEN),Asociaci,450,90,NO,NO,NO,NO,NO,NO
Sistema de EL DORADO,153500,Perú,"LIMA,HUAURA,SAYAN",-11.2106,-77.3906,382,2009,EL DORADO,Prestador de EL DORADO,8,6,NO,NO,NO,NO,NO,NO
Sistema de SAN JUAN BAJO,153508,Perú,"LIMA,HUAURA,VEGUETA",-10.9733,-77.6449,26,2000,SAN JUAN BAJO,san juan alto,450,90,NO,NO,NO,NO,NO,NO
Sistema de LA MURALLA,153509,Perú,"LIMA,HUAURA,VEGUETA",-11.0237,-77.59,96,1985,LA MURALLA,la muralla,355.55555555555554,200,NO,NO,NO,NO,NO,NO
Sistema de 200 MILLAS,153510,Perú,"LIMA,HUAURA,VEGUETA",-11.0086,-77.6443,25,2014,200 MILLAS,jass,60,12,NO,NO,NO,NO,NO,NO
Sistema de LA MAQUINA,153512,Perú,"LIMA,HUAURA,VEGUETA",-11.0289,-77.5999,106,2010,LA MAQUINA,el pueblo,75,15,NO,NO,NO,NO,NO,NO
Sistema de SANTA ISABEL,153513,Perú,"LIMA,HUAURA,VEGUETA",-10.9869,-77.6423,22,2014,SANTA ISABEL,ASOCIACION SANTA ISABEL,145,29,NO,NO,NO,NO,NO,NO
Sistema de TAURIPAMPA,153554,Perú,"LIMA,YAUYOS,TAURIPAMPA",-12.6172,-76.162,3507,1990,TAURIPAMPA,Municipalidad de TAURIPAMPA,261.8181818181818,80,NO,NO,NO,NO,NO,NO
Sistema de VI,153555,Perú,"LIMA,YAUYOS,VIÑAC",-12.9311,-75.7795,3298,2000,NA,NA,NA,NA,NA,NA,NA,NA,NO,NO
Sistema de ATALAYA,153556,Perú,"LORETO,MAYNAS,ALTO NANAY",-3.63033,-73.7531,95,2014,ATALAYA,Prestador de ATALAYA,73.1,17,NO,NO,NO,NO,NO,NO
Sistema de SANTA MARIA DE NANAY,153557,Perú,"LORETO,MAYNAS,ALTO NANAY",-3.88805,-73.6963,115,2007,SANTA MARIA DE NANAY,Prestador de SANTA MARIA DE NANAY,776,195,NO,NO,NO,NO,NO,NO
Sistema de AUCAYO,153558,Perú,"LORETO,MAYNAS,FERNANDO LORES",-3.85906,-73.1559,98,2005,AUCAYO,Prestador de AUCAYO,800,147,NO,NO,NO,NO,NO,NO
Sistema de UNION,153559,Perú,"LORETO,MAYNAS,FERNANDO LORES",-3.84381,-73.1217,103,2007,UNION,jass union aucayo,200,40,NO,NO,NO,NO,NO,NO
Sistema de LIBERTAD VAINILLA,153560,Perú,"LORETO,MAYNAS,INDIANA",-3.48603,-72.7478,98,2013,LIBERTAD VAINILLA,jass,368,68,NO,NO,NO,NO,NO,NO
Sistema de SANTA CECILIA,153561,Perú,"LORETO,MAYNAS,INDIANA",-3.60915,-72.9572,96,2009,SANTA CECILIA,jass,0,0,NO,NO,NO,NO,NO,NO
Sistema de INDIANA,153562,Perú,"LORETO,MAYNAS,INDIANA",-3.50035,-73.041,92,2000,INDIANA,Municipalidad de INDIANA,1912,450,NO,NO,NO,NO,NO,NO
Sistema de MANITI I - ZONA,153563,Perú,"LORETO,MAYNAS,INDIANA",-3.51958,-72.8407,94,2013,MANITI I - ZONA,jass,264.44444444444446,34,NO,NO,NO,NO,NO,NO
Sistema de SINCHICUY,153564,Perú,"LORETO,MAYNAS,INDIANA",-3.58728,-73.1367,94,2012,SINCHICUY,jass,462.5636363636363,38,NO,NO,NO,NO,NO,NO
Sistema de JORGE CHAVEZ,153565,Perú,"LORETO,MAYNAS,INDIANA",-3.48505,-72.9119,95,2014,JORGE CHAVEZ,planta de agua segura,0,0,NO,NO,NO,NO,NO,NO
Sistema de SAN JOSE,153566,Perú,"LORETO,MAYNAS,MAZAN",-3.50261,-73.102,103,2000,SAN JOSE,Prestador de SAN JOSE,0,0,NO,NO,NO,NO,NO,NO
